municipio_codigo,municipio_nome,municipio_nome_norm,uf_codigo,uf_nome,uf_nome_norm,uf_sigla,microrregiao_codigo,microrregiao_nome,microrregiao_nome_norm,mesorregiao_codigo,mesorregiao_nome,mesorregiao_nome_norm,regiao_codigo,regiao_nome,regiao_nome_norm,regiao_sigla,regiao_imediata_codigo,regiao_imediata_nome,regiao_imediata_nome_norm,regiao_intermediaria_codigo,regiao_intermediaria_nome,regiao_intermediaria_nome_norm,municipio_latitude,municipio_longitude,municipio_codigo_simplificado,macrorregiao_saude_codigo,macrorregiao_saude_nome,regiao_saude_codigo,regiao_saude_nome,municipio_populacao_estimada_2022
1100015,Alta Floresta D'Oeste,ALTA FLORESTA D'OESTE,11,Rondônia,RONDONIA,RO,11006,Cacoal,CACOAL,1102,Leste Rondoniense,LESTE RONDONIENSE,1,Norte,NORTE,N,110005,Cacoal,CACOAL,1102,Ji-Paraná,JI-PARANA,-12.470142776125765,-62.274656298003926,110001,1101,MACRORREGIONAL II (CACOAL),11005,ZONA DA MATA,21.494
1100023,Ariquemes,ARIQUEMES,11,Rondônia,RONDONIA,RO,11003,Ariquemes,ARIQUEMES,1102,Leste Rondoniense,LESTE RONDONIENSE,1,Norte,NORTE,N,110002,Ariquemes,ARIQUEMES,1101,Porto Velho,PORTO VELHO,-9.951882803331172,-62.95722832019625,110002,1102,MACRORREGIAO I - PORTO VELHO,11001,VALE DO JAMARI,96.833
1100031,Cabixi,CABIXI,11,Rondônia,RONDONIA,RO,11008,Colorado do Oeste,COLORADO DO OESTE,1102,Leste Rondoniense,LESTE RONDONIENSE,1,Norte,NORTE,N,110006,Vilhena,VILHENA,1102,Ji-Paraná,JI-PARANA,-13.474876806191794,-60.639809494690844,110003,1101,MACRORREGIONAL II (CACOAL),11006,CONE SUL,5.351
1100049,Cacoal,CACOAL,11,Rondônia,RONDONIA,RO,11006,Cacoal,CACOAL,1102,Leste Rondoniense,LESTE RONDONIENSE,1,Norte,NORTE,N,110005,Cacoal,CACOAL,1102,Ji-Paraná,JI-PARANA,-11.30128928790282,-61.3247255190672,110004,1101,MACRORREGIONAL II (CACOAL),11002,CAFE,86.887
1100056,Cerejeiras,CEREJEIRAS,11,Rondônia,RONDONIA,RO,11008,Colorado do Oeste,COLORADO DO OESTE,1102,Leste Rondoniense,LESTE RONDONIENSE,1,Norte,NORTE,N,110006,Vilhena,VILHENA,1102,Ji-Paraná,JI-PARANA,-13.203557346254994,-61.26096656225668,110005,1101,MACRORREGIONAL II (CACOAL),11006,CONE SUL,15.890
1100064,Colorado do Oeste,COLORADO DO OESTE,11,Rondônia,RONDONIA,RO,11008,Colorado do Oeste,COLORADO DO OESTE,1102,Leste Rondoniense,LESTE RONDONIENSE,1,Norte,NORTE,N,110006,Vilhena,VILHENA,1102,Ji-Paraná,JI-PARANA,-13.159161759626095,-60.550233545635926,110006,1101,MACRORREGIONAL II (CACOAL),11006,CONE SUL,15.663
1100072,Corumbiara,CORUMBIARA,11,Rondônia,RONDONIA,RO,11008,Colorado do Oeste,COLORADO DO OESTE,1102,Leste Rondoniense,LESTE RONDONIENSE,1,Norte,NORTE,N,110006,Vilhena,VILHENA,1102,Ji-Paraná,JI-PARANA,-12.92663951999083,-61.09163722820117,110007,1101,MACRORREGIONAL II (CACOAL),11006,CONE SUL,7.519
1100080,Costa Marques,COSTA MARQUES,11,Rondônia,RONDONIA,RO,11002,Guajará-Mirim,GUAJARA-MIRIM,1101,Madeira-Guaporé,MADEIRA-GUAPORE,1,Norte,NORTE,N,110004,Ji-Paraná,JI-PARANA,1102,Ji-Paraná,JI-PARANA,-12.147248701314114,-64.0587871396693,110008,1101,MACRORREGIONAL II (CACOAL),11007,VALE DO GUAPORE,12.627
1100098,Espigão D'Oeste,ESPIGAO D'OESTE,11,Rondônia,RONDONIA,RO,11006,Cacoal,CACOAL,1102,Leste Rondoniense,LESTE RONDONIENSE,1,Norte,NORTE,N,110005,Cacoal,CACOAL,1102,Ji-Paraná,JI-PARANA,-11.351337972332228,-60.784829490444636,110009,1101,MACRORREGIONAL II (CACOAL),11002,CAFE,29.414
1100106,Guajará-Mirim,GUAJARA-MIRIM,11,Rondônia,RONDONIA,RO,11002,Guajará-Mirim,GUAJARA-MIRIM,1101,Madeira-Guaporé,MADEIRA-GUAPORE,1,Norte,NORTE,N,110001,Porto Velho,PORTO VELHO,1101,Porto Velho,PORTO VELHO,-11.305630074973514,-64.5375562625855,110010,1102,MACRORREGIAO I - PORTO VELHO,11004,MADEIRA-MAMORE,39.387
1100114,Jaru,JARU,11,Rondônia,RONDONIA,RO,11004,Ji-Paraná,JI-PARANA,1102,Leste Rondoniense,LESTE RONDONIENSE,1,Norte,NORTE,N,110003,Jaru,JARU,1101,Porto Velho,PORTO VELHO,-10.592453310462208,-62.58487905843683,110011,1102,MACRORREGIAO I - PORTO VELHO,11003,CENTRAL,50.591
1100122,Ji-Paraná,JI-PARANA,11,Rondônia,RONDONIA,RO,11004,Ji-Paraná,JI-PARANA,1102,Leste Rondoniense,LESTE RONDONIENSE,1,Norte,NORTE,N,110004,Ji-Paraná,JI-PARANA,1102,Ji-Paraná,JI-PARANA,-10.46222338670456,-61.757251657713844,110012,1101,MACRORREGIONAL II (CACOAL),11003,CENTRAL,124.333
1100130,Machadinho D'Oeste,MACHADINHO D'OESTE,11,Rondônia,RONDONIA,RO,11003,Ariquemes,ARIQUEMES,1102,Leste Rondoniense,LESTE RONDONIENSE,1,Norte,NORTE,N,110003,Jaru,JARU,1101,Porto Velho,PORTO VELHO,-9.20410042714398,-62.01037914331235,110013,1102,MACRORREGIAO I - PORTO VELHO,11001,VALE DO JAMARI,30.707
1100148,Nova Brasilândia D'Oeste,NOVA BRASILANDIA D'OESTE,11,Rondônia,RONDONIA,RO,11005,Alvorada D'Oeste,ALVORADA D'OESTE,1102,Leste Rondoniense,LESTE RONDONIENSE,1,Norte,NORTE,N,110005,Cacoal,CACOAL,1102,Ji-Paraná,JI-PARANA,-11.643114144095811,-62.28023553641803,110014,1101,MACRORREGIONAL II (CACOAL),11005,ZONA DA MATA,15.679
1100155,Ouro Preto do Oeste,OURO PRETO DO OESTE,11,Rondônia,RONDONIA,RO,11004,Ji-Paraná,JI-PARANA,1102,Leste Rondoniense,LESTE RONDONIENSE,1,Norte,NORTE,N,110004,Ji-Paraná,JI-PARANA,1102,Ji-Paraná,JI-PARANA,-10.61055746414028,-62.172533723996416,110015,1101,MACRORREGIONAL II (CACOAL),11003,CENTRAL,35.044
1100189,Pimenta Bueno,PIMENTA BUENO,11,Rondônia,RONDONIA,RO,11007,Vilhena,VILHENA,1102,Leste Rondoniense,LESTE RONDONIENSE,1,Norte,NORTE,N,110005,Cacoal,CACOAL,1102,Ji-Paraná,JI-PARANA,-11.894475157539558,-60.83038685352707,110018,1101,MACRORREGIONAL II (CACOAL),11002,CAFE,35.079
1100205,Porto Velho,PORTO VELHO,11,Rondônia,RONDONIA,RO,11001,Porto Velho,PORTO VELHO,1101,Madeira-Guaporé,MADEIRA-GUAPORE,1,Norte,NORTE,N,110001,Porto Velho,PORTO VELHO,1101,Porto Velho,PORTO VELHO,-9.153579584258798,-64.30679404700366,110020,1102,MACRORREGIAO I - PORTO VELHO,11004,MADEIRA-MAMORE,460.434
1100254,Presidente Médici,PRESIDENTE MEDICI,11,Rondônia,RONDONIA,RO,11004,Ji-Paraná,JI-PARANA,1102,Leste Rondoniense,LESTE RONDONIENSE,1,Norte,NORTE,N,110004,Ji-Paraná,JI-PARANA,1102,Ji-Paraná,JI-PARANA,-11.166279589731598,-61.87795307199269,110025,1101,MACRORREGIONAL II (CACOAL),11003,CENTRAL,19.327
1100262,Rio Crespo,RIO CRESPO,11,Rondônia,RONDONIA,RO,11003,Ariquemes,ARIQUEMES,1102,Leste Rondoniense,LESTE RONDONIENSE,1,Norte,NORTE,N,110002,Ariquemes,ARIQUEMES,1101,Porto Velho,PORTO VELHO,-9.645210515492334,-62.79007575873838,110026,1102,MACRORREGIAO I - PORTO VELHO,11001,VALE DO JAMARI,3.471
1100288,Rolim de Moura,ROLIM DE MOURA,11,Rondônia,RONDONIA,RO,11006,Cacoal,CACOAL,1102,Leste Rondoniense,LESTE RONDONIENSE,1,Norte,NORTE,N,110005,Cacoal,CACOAL,1102,Ji-Paraná,JI-PARANA,-11.732550265469099,-61.77154884187759,110028,1101,MACRORREGIONAL II (CACOAL),11005,ZONA DA MATA,56.406
1100296,Santa Luzia D'Oeste,SANTA LUZIA D'OESTE,11,Rondônia,RONDONIA,RO,11006,Cacoal,CACOAL,1102,Leste Rondoniense,LESTE RONDONIENSE,1,Norte,NORTE,N,110005,Cacoal,CACOAL,1102,Ji-Paraná,JI-PARANA,-12.026972268845222,-61.701095324713144,110029,1101,MACRORREGIONAL II (CACOAL),11005,ZONA DA MATA,7.419
1100304,Vilhena,VILHENA,11,Rondônia,RONDONIA,RO,11007,Vilhena,VILHENA,1102,Leste Rondoniense,LESTE RONDONIENSE,1,Norte,NORTE,N,110006,Vilhena,VILHENA,1102,Ji-Paraná,JI-PARANA,-12.096017105822723,-60.24862022227203,110030,1101,MACRORREGIONAL II (CACOAL),11006,CONE SUL,95.832
1100320,São Miguel do Guaporé,SAO MIGUEL DO GUAPORE,11,Rondônia,RONDONIA,RO,11005,Alvorada D'Oeste,ALVORADA D'OESTE,1102,Leste Rondoniense,LESTE RONDONIENSE,1,Norte,NORTE,N,110004,Ji-Paraná,JI-PARANA,1102,Ji-Paraná,JI-PARANA,-11.612172087571532,-62.98771893884456,110032,1101,MACRORREGIONAL II (CACOAL),11003,CENTRAL,20.746
1100338,Nova Mamoré,NOVA MAMORE,11,Rondônia,RONDONIA,RO,11001,Porto Velho,PORTO VELHO,1101,Madeira-Guaporé,MADEIRA-GUAPORE,1,Norte,NORTE,N,110001,Porto Velho,PORTO VELHO,1101,Porto Velho,PORTO VELHO,-10.3821566725755,-64.62911346539931,110033,1102,MACRORREGIAO I - PORTO VELHO,11004,MADEIRA-MAMORE,25.444
1100346,Alvorada D'Oeste,ALVORADA D'OESTE,11,Rondônia,RONDONIA,RO,11005,Alvorada D'Oeste,ALVORADA D'OESTE,1102,Leste Rondoniense,LESTE RONDONIENSE,1,Norte,NORTE,N,110004,Ji-Paraná,JI-PARANA,1102,Ji-Paraná,JI-PARANA,-11.311418992045734,-62.545006955239835,110034,1101,MACRORREGIONAL II (CACOAL),11003,CENTRAL,13.117
1100379,Alto Alegre dos Parecis,ALTO ALEGRE DOS PARECIS,11,Rondônia,RONDONIA,RO,11006,Cacoal,CACOAL,1102,Leste Rondoniense,LESTE RONDONIENSE,1,Norte,NORTE,N,110005,Cacoal,CACOAL,1102,Ji-Paraná,JI-PARANA,-12.59372718357202,-61.8808043193904,110037,1101,MACRORREGIONAL II (CACOAL),11005,ZONA DA MATA,11.479
1100403,Alto Paraíso,ALTO PARAISO,11,Rondônia,RONDONIA,RO,11003,Ariquemes,ARIQUEMES,1102,Leste Rondoniense,LESTE RONDONIENSE,1,Norte,NORTE,N,110002,Ariquemes,ARIQUEMES,1101,Porto Velho,PORTO VELHO,-9.649322546830172,-63.39432909664795,110040,1102,MACRORREGIAO I - PORTO VELHO,11001,VALE DO JAMARI,16.320
1100452,Buritis,BURITIS,11,Rondônia,RONDONIA,RO,11001,Porto Velho,PORTO VELHO,1101,Madeira-Guaporé,MADEIRA-GUAPORE,1,Norte,NORTE,N,110002,Ariquemes,ARIQUEMES,1101,Porto Velho,PORTO VELHO,-10.052106111785983,-63.94116550084399,110045,1102,MACRORREGIAO I - PORTO VELHO,11001,VALE DO JAMARI,27.992
1100502,Novo Horizonte do Oeste,NOVO HORIZONTE DO OESTE,11,Rondônia,RONDONIA,RO,11006,Cacoal,CACOAL,1102,Leste Rondoniense,LESTE RONDONIENSE,1,Norte,NORTE,N,110005,Cacoal,CACOAL,1102,Ji-Paraná,JI-PARANA,-11.68108355064171,-62.083202575355024,110050,1101,MACRORREGIONAL II (CACOAL),11005,ZONA DA MATA,7.667
1100601,Cacaulândia,CACAULANDIA,11,Rondônia,RONDONIA,RO,11003,Ariquemes,ARIQUEMES,1102,Leste Rondoniense,LESTE RONDONIENSE,1,Norte,NORTE,N,110002,Ariquemes,ARIQUEMES,1101,Porto Velho,PORTO VELHO,-10.331590930958438,-62.98721768697678,110060,1102,MACRORREGIAO I - PORTO VELHO,11001,VALE DO JAMARI,4.150
1100700,Campo Novo de Rondônia,CAMPO NOVO DE RONDONIA,11,Rondônia,RONDONIA,RO,11001,Porto Velho,PORTO VELHO,1101,Madeira-Guaporé,MADEIRA-GUAPORE,1,Norte,NORTE,N,110002,Ariquemes,ARIQUEMES,1101,Porto Velho,PORTO VELHO,-10.484932797255949,-63.79971534107361,110070,1102,MACRORREGIAO I - PORTO VELHO,11001,VALE DO JAMARI,8.844
1100809,Candeias do Jamari,CANDEIAS DO JAMARI,11,Rondônia,RONDONIA,RO,11001,Porto Velho,PORTO VELHO,1101,Madeira-Guaporé,MADEIRA-GUAPORE,1,Norte,NORTE,N,110001,Porto Velho,PORTO VELHO,1101,Porto Velho,PORTO VELHO,-8.887003502532938,-63.32560724185981,110080,1102,MACRORREGIAO I - PORTO VELHO,11004,MADEIRA-MAMORE,22.310
1100908,Castanheiras,CASTANHEIRAS,11,Rondônia,RONDONIA,RO,11006,Cacoal,CACOAL,1102,Leste Rondoniense,LESTE RONDONIENSE,1,Norte,NORTE,N,110005,Cacoal,CACOAL,1102,Ji-Paraná,JI-PARANA,-11.470794881421977,-61.88007131850192,110090,1101,MACRORREGIONAL II (CACOAL),11005,ZONA DA MATA,3.233
1100924,Chupinguaia,CHUPINGUAIA,11,Rondônia,RONDONIA,RO,11007,Vilhena,VILHENA,1102,Leste Rondoniense,LESTE RONDONIENSE,1,Norte,NORTE,N,110006,Vilhena,VILHENA,1102,Ji-Paraná,JI-PARANA,-12.537255241750643,-60.89914418018472,110092,1101,MACRORREGIONAL II (CACOAL),11006,CONE SUL,9.324
1100940,Cujubim,CUJUBIM,11,Rondônia,RONDONIA,RO,11001,Porto Velho,PORTO VELHO,1101,Madeira-Guaporé,MADEIRA-GUAPORE,1,Norte,NORTE,N,110002,Ariquemes,ARIQUEMES,1101,Porto Velho,PORTO VELHO,-9.17107442757223,-62.565330269541086,110094,1102,MACRORREGIAO I - PORTO VELHO,11001,VALE DO JAMARI,14.863
1101005,Governador Jorge Teixeira,GOVERNADOR JORGE TEIXEIRA,11,Rondônia,RONDONIA,RO,11004,Ji-Paraná,JI-PARANA,1102,Leste Rondoniense,LESTE RONDONIENSE,1,Norte,NORTE,N,110003,Jaru,JARU,1101,Porto Velho,PORTO VELHO,-10.74802864624275,-63.18401093201084,110100,1102,MACRORREGIAO I - PORTO VELHO,11003,CENTRAL,8.001
1101104,Itapuã do Oeste,ITAPUA DO OESTE,11,Rondônia,RONDONIA,RO,11001,Porto Velho,PORTO VELHO,1101,Madeira-Guaporé,MADEIRA-GUAPORE,1,Norte,NORTE,N,110001,Porto Velho,PORTO VELHO,1101,Porto Velho,PORTO VELHO,-9.170220493769232,-63.04494650178619,110110,1102,MACRORREGIAO I - PORTO VELHO,11004,MADEIRA-MAMORE,8.548
1101203,Ministro Andreazza,MINISTRO ANDREAZZA,11,Rondônia,RONDONIA,RO,11006,Cacoal,CACOAL,1102,Leste Rondoniense,LESTE RONDONIENSE,1,Norte,NORTE,N,110005,Cacoal,CACOAL,1102,Ji-Paraná,JI-PARANA,-11.160295758677448,-61.5689722953356,110120,1101,MACRORREGIONAL II (CACOAL),11002,CAFE,6.466
1101302,Mirante da Serra,MIRANTE DA SERRA,11,Rondônia,RONDONIA,RO,11004,Ji-Paraná,JI-PARANA,1102,Leste Rondoniense,LESTE RONDONIENSE,1,Norte,NORTE,N,110004,Ji-Paraná,JI-PARANA,1102,Ji-Paraná,JI-PARANA,-11.076826406707703,-62.84795836504249,110130,1101,MACRORREGIONAL II (CACOAL),11003,CENTRAL,9.235
1101401,Monte Negro,MONTE NEGRO,11,Rondônia,RONDONIA,RO,11003,Ariquemes,ARIQUEMES,1102,Leste Rondoniense,LESTE RONDONIENSE,1,Norte,NORTE,N,110002,Ariquemes,ARIQUEMES,1101,Porto Velho,PORTO VELHO,-10.210826194130332,-63.37238266359421,110140,1102,MACRORREGIAO I - PORTO VELHO,11001,VALE DO JAMARI,11.548
1101435,Nova União,NOVA UNIAO,11,Rondônia,RONDONIA,RO,11004,Ji-Paraná,JI-PARANA,1102,Leste Rondoniense,LESTE RONDONIENSE,1,Norte,NORTE,N,110004,Ji-Paraná,JI-PARANA,1102,Ji-Paraná,JI-PARANA,-10.88934484151206,-62.53232571785725,110143,1101,MACRORREGIONAL II (CACOAL),11003,CENTRAL,6.200
1101450,Parecis,PARECIS,11,Rondônia,RONDONIA,RO,11007,Vilhena,VILHENA,1102,Leste Rondoniense,LESTE RONDONIENSE,1,Norte,NORTE,N,110005,Cacoal,CACOAL,1102,Ji-Paraná,JI-PARANA,-12.26232725878001,-61.41537736017199,110145,1101,MACRORREGIONAL II (CACOAL),11005,ZONA DA MATA,4.125
1101468,Pimenteiras do Oeste,PIMENTEIRAS DO OESTE,11,Rondônia,RONDONIA,RO,11008,Colorado do Oeste,COLORADO DO OESTE,1102,Leste Rondoniense,LESTE RONDONIENSE,1,Norte,NORTE,N,110006,Vilhena,VILHENA,1102,Ji-Paraná,JI-PARANA,-13.173880116084371,-61.545297378325856,110146,1101,MACRORREGIONAL II (CACOAL),11006,CONE SUL,2.156
1101476,Primavera de Rondônia,PRIMAVERA DE RONDONIA,11,Rondônia,RONDONIA,RO,11007,Vilhena,VILHENA,1102,Leste Rondoniense,LESTE RONDONIENSE,1,Norte,NORTE,N,110005,Cacoal,CACOAL,1102,Ji-Paraná,JI-PARANA,-11.878666094716975,-61.31533841235684,110147,1101,MACRORREGIONAL II (CACOAL),11002,CAFE,3.076
1101484,São Felipe D'Oeste,SAO FELIPE D'OESTE,11,Rondônia,RONDONIA,RO,11007,Vilhena,VILHENA,1102,Leste Rondoniense,LESTE RONDONIENSE,1,Norte,NORTE,N,110005,Cacoal,CACOAL,1102,Ji-Paraná,JI-PARANA,-11.904992036248897,-61.46707913098538,110148,1101,MACRORREGIONAL II (CACOAL),11002,CAFE,5.258
1101492,São Francisco do Guaporé,SAO FRANCISCO DO GUAPORE,11,Rondônia,RONDONIA,RO,11002,Guajará-Mirim,GUAJARA-MIRIM,1101,Madeira-Guaporé,MADEIRA-GUAPORE,1,Norte,NORTE,N,110004,Ji-Paraná,JI-PARANA,1102,Ji-Paraná,JI-PARANA,-12.36839840773568,-63.12215635009423,110149,1101,MACRORREGIONAL II (CACOAL),11007,VALE DO GUAPORE,16.286
1101500,Seringueiras,SERINGUEIRAS,11,Rondônia,RONDONIA,RO,11005,Alvorada D'Oeste,ALVORADA D'OESTE,1102,Leste Rondoniense,LESTE RONDONIENSE,1,Norte,NORTE,N,110004,Ji-Paraná,JI-PARANA,1102,Ji-Paraná,JI-PARANA,-11.782512839681962,-63.186531432936675,110150,1101,MACRORREGIONAL II (CACOAL),11007,VALE DO GUAPORE,12.060
1101559,Teixeirópolis,TEIXEIROPOLIS,11,Rondônia,RONDONIA,RO,11004,Ji-Paraná,JI-PARANA,1102,Leste Rondoniense,LESTE RONDONIENSE,1,Norte,NORTE,N,110004,Ji-Paraná,JI-PARANA,1102,Ji-Paraná,JI-PARANA,-10.943453732095358,-62.27976424720011,110155,1101,MACRORREGIONAL II (CACOAL),11003,CENTRAL,4.256
1101609,Theobroma,THEOBROMA,11,Rondônia,RONDONIA,RO,11004,Ji-Paraná,JI-PARANA,1102,Leste Rondoniense,LESTE RONDONIENSE,1,Norte,NORTE,N,110003,Jaru,JARU,1101,Porto Velho,PORTO VELHO,-10.121766523244748,-62.34250623601004,110160,1102,MACRORREGIAO I - PORTO VELHO,11003,CENTRAL,8.113
1101708,Urupá,URUPA,11,Rondônia,RONDONIA,RO,11004,Ji-Paraná,JI-PARANA,1102,Leste Rondoniense,LESTE RONDONIENSE,1,Norte,NORTE,N,110004,Ji-Paraná,JI-PARANA,1102,Ji-Paraná,JI-PARANA,-11.103953472842221,-62.424415278661634,110170,1101,MACRORREGIONAL II (CACOAL),11003,CENTRAL,10.725
1101757,Vale do Anari,VALE DO ANARI,11,Rondônia,RONDONIA,RO,11003,Ariquemes,ARIQUEMES,1102,Leste Rondoniense,LESTE RONDONIENSE,1,Norte,NORTE,N,110003,Jaru,JARU,1101,Porto Velho,PORTO VELHO,-9.732447365620539,-61.93910407176683,110175,1102,MACRORREGIAO I - PORTO VELHO,11003,CENTRAL,7.788
1101807,Vale do Paraíso,VALE DO PARAISO,11,Rondônia,RONDONIA,RO,11004,Ji-Paraná,JI-PARANA,1102,Leste Rondoniense,LESTE RONDONIENSE,1,Norte,NORTE,N,110004,Ji-Paraná,JI-PARANA,1102,Ji-Paraná,JI-PARANA,-10.384264676409261,-62.09405781782348,110180,1101,MACRORREGIONAL II (CACOAL),11003,CENTRAL,6.479
1200013,Acrelândia,ACRELANDIA,12,Acre,ACRE,AC,12004,Rio Branco,RIO BRANCO,1202,Vale do Acre,VALE DO ACRE,1,Norte,NORTE,N,120001,Rio Branco,RIO BRANCO,1201,Rio Branco,RIO BRANCO,-9.933924806454502,-66.95015502641888,120001,1201,MACRO UNICA - AC,12002,BAIXO ACRE E PURUS,14.021
1200054,Assis Brasil,ASSIS BRASIL,12,Acre,ACRE,AC,12005,Brasiléia,BRASILEIA,1202,Vale do Acre,VALE DO ACRE,1,Norte,NORTE,N,120002,Brasiléia,BRASILEIA,1201,Rio Branco,RIO BRANCO,-10.77967341039408,-70.00381951192219,120005,1201,MACRO UNICA - AC,12001,ALTO ACRE,8.100
1200104,Brasiléia,BRASILEIA,12,Acre,ACRE,AC,12005,Brasiléia,BRASILEIA,1202,Vale do Acre,VALE DO ACRE,1,Norte,NORTE,N,120002,Brasiléia,BRASILEIA,1201,Rio Branco,RIO BRANCO,-10.747363196388383,-69.20747231994964,120010,1201,MACRO UNICA - AC,12001,ALTO ACRE,26.000
1200138,Bujari,BUJARI,12,Acre,ACRE,AC,12004,Rio Branco,RIO BRANCO,1202,Vale do Acre,VALE DO ACRE,1,Norte,NORTE,N,120001,Rio Branco,RIO BRANCO,1201,Rio Branco,RIO BRANCO,-9.614078639644445,-68.17367364937729,120013,1201,MACRO UNICA - AC,12002,BAIXO ACRE E PURUS,12.917
1200179,Capixaba,CAPIXABA,12,Acre,ACRE,AC,12004,Rio Branco,RIO BRANCO,1202,Vale do Acre,VALE DO ACRE,1,Norte,NORTE,N,120001,Rio Branco,RIO BRANCO,1201,Rio Branco,RIO BRANCO,-10.474324827263864,-67.83586998402251,120017,1201,MACRO UNICA - AC,12002,BAIXO ACRE E PURUS,10.392
1200203,Cruzeiro do Sul,CRUZEIRO DO SUL,12,Acre,ACRE,AC,12001,Cruzeiro do Sul,CRUZEIRO DO SUL,1201,Vale do Juruá,VALE DO JURUA,1,Norte,NORTE,N,120004,Cruzeiro do Sul,CRUZEIRO DO SUL,1202,Cruzeiro do Sul,CRUZEIRO DO SUL,-7.97224692158376,-72.7557097137297,120020,1201,MACRO UNICA - AC,12003,JURUA E TARAUACA ENVIRA,91.888
1200252,Epitaciolândia,EPITACIOLANDIA,12,Acre,ACRE,AC,12005,Brasiléia,BRASILEIA,1202,Vale do Acre,VALE DO ACRE,1,Norte,NORTE,N,120002,Brasiléia,BRASILEIA,1201,Rio Branco,RIO BRANCO,-10.88922250679891,-68.61820994651205,120025,1201,MACRO UNICA - AC,12001,ALTO ACRE,18.757
1200302,Feijó,FEIJO,12,Acre,ACRE,AC,12002,Tarauacá,TARAUACA,1201,Vale do Juruá,VALE DO JURUA,1,Norte,NORTE,N,120005,Tarauacá,TARAUACA,1202,Cruzeiro do Sul,CRUZEIRO DO SUL,-8.923348727963907,-70.74396337669761,120030,1201,MACRO UNICA - AC,12003,JURUA E TARAUACA ENVIRA,35.426
1200328,Jordão,JORDAO,12,Acre,ACRE,AC,12002,Tarauacá,TARAUACA,1201,Vale do Juruá,VALE DO JURUA,1,Norte,NORTE,N,120005,Tarauacá,TARAUACA,1202,Cruzeiro do Sul,CRUZEIRO DO SUL,-9.241689137596076,-71.90546545349784,120032,1201,MACRO UNICA - AC,12002,BAIXO ACRE E PURUS,9.222
1200336,Mâncio Lima,MANCIO LIMA,12,Acre,ACRE,AC,12001,Cruzeiro do Sul,CRUZEIRO DO SUL,1201,Vale do Juruá,VALE DO JURUA,1,Norte,NORTE,N,120004,Cruzeiro do Sul,CRUZEIRO DO SUL,1202,Cruzeiro do Sul,CRUZEIRO DO SUL,-7.504825401090938,-73.43580789269109,120033,1201,MACRO UNICA - AC,12003,JURUA E TARAUACA ENVIRA,19.294
1200344,Manoel Urbano,MANOEL URBANO,12,Acre,ACRE,AC,12003,Sena Madureira,SENA MADUREIRA,1202,Vale do Acre,VALE DO ACRE,1,Norte,NORTE,N,120003,Sena Madureira,SENA MADUREIRA,1201,Rio Branco,RIO BRANCO,-9.376893865465377,-69.85001330814967,120034,1201,MACRO UNICA - AC,12002,BAIXO ACRE E PURUS,11.996
1200351,Marechal Thaumaturgo,MARECHAL THAUMATURGO,12,Acre,ACRE,AC,12001,Cruzeiro do Sul,CRUZEIRO DO SUL,1201,Vale do Juruá,VALE DO JURUA,1,Norte,NORTE,N,120004,Cruzeiro do Sul,CRUZEIRO DO SUL,1202,Cruzeiro do Sul,CRUZEIRO DO SUL,-9.096065074082661,-72.55878635144,120035,1201,MACRO UNICA - AC,12003,JURUA E TARAUACA ENVIRA,17.093
1200385,Plácido de Castro,PLACIDO DE CASTRO,12,Acre,ACRE,AC,12004,Rio Branco,RIO BRANCO,1202,Vale do Acre,VALE DO ACRE,1,Norte,NORTE,N,120001,Rio Branco,RIO BRANCO,1201,Rio Branco,RIO BRANCO,-10.249085538356004,-67.34032074458018,120038,1201,MACRO UNICA - AC,12002,BAIXO ACRE E PURUS,16.560
1200393,Porto Walter,PORTO WALTER,12,Acre,ACRE,AC,12001,Cruzeiro do Sul,CRUZEIRO DO SUL,1201,Vale do Juruá,VALE DO JURUA,1,Norte,NORTE,N,120004,Cruzeiro do Sul,CRUZEIRO DO SUL,1202,Cruzeiro do Sul,CRUZEIRO DO SUL,-8.492081478802156,-72.73408477879558,120039,1201,MACRO UNICA - AC,12003,JURUA E TARAUACA ENVIRA,10.735
1200401,Rio Branco,RIO BRANCO,12,Acre,ACRE,AC,12004,Rio Branco,RIO BRANCO,1202,Vale do Acre,VALE DO ACRE,1,Norte,NORTE,N,120001,Rio Branco,RIO BRANCO,1201,Rio Branco,RIO BRANCO,-10.06613626302556,-68.37108529518449,120040,1201,MACRO UNICA - AC,12002,BAIXO ACRE E PURUS,364.756
1200427,Rodrigues Alves,RODRIGUES ALVES,12,Acre,ACRE,AC,12001,Cruzeiro do Sul,CRUZEIRO DO SUL,1201,Vale do Juruá,VALE DO JURUA,1,Norte,NORTE,N,120004,Cruzeiro do Sul,CRUZEIRO DO SUL,1202,Cruzeiro do Sul,CRUZEIRO DO SUL,-7.843976226099343,-73.22425544297977,120042,1201,MACRO UNICA - AC,12003,JURUA E TARAUACA ENVIRA,14.938
1200435,Santa Rosa do Purus,SANTA ROSA DO PURUS,12,Acre,ACRE,AC,12003,Sena Madureira,SENA MADUREIRA,1202,Vale do Acre,VALE DO ACRE,1,Norte,NORTE,N,120003,Sena Madureira,SENA MADUREIRA,1201,Rio Branco,RIO BRANCO,-9.412138668177688,-70.3973938848311,120043,1201,MACRO UNICA - AC,12002,BAIXO ACRE E PURUS,6.723
1200450,Senador Guiomard,SENADOR GUIOMARD,12,Acre,ACRE,AC,12004,Rio Branco,RIO BRANCO,1202,Vale do Acre,VALE DO ACRE,1,Norte,NORTE,N,120001,Rio Branco,RIO BRANCO,1201,Rio Branco,RIO BRANCO,-9.997297357586826,-67.42769393765953,120045,1201,MACRO UNICA - AC,12002,BAIXO ACRE E PURUS,21.454
1200500,Sena Madureira,SENA MADUREIRA,12,Acre,ACRE,AC,12003,Sena Madureira,SENA MADUREIRA,1202,Vale do Acre,VALE DO ACRE,1,Norte,NORTE,N,120003,Sena Madureira,SENA MADUREIRA,1201,Rio Branco,RIO BRANCO,-9.770510813705808,-69.38035225998094,120050,1201,MACRO UNICA - AC,12002,BAIXO ACRE E PURUS,41.343
1200609,Tarauacá,TARAUACA,12,Acre,ACRE,AC,12002,Tarauacá,TARAUACA,1201,Vale do Juruá,VALE DO JURUA,1,Norte,NORTE,N,120005,Tarauacá,TARAUACA,1202,Cruzeiro do Sul,CRUZEIRO DO SUL,-8.239470619909927,-71.44499014865491,120060,1201,MACRO UNICA - AC,12003,JURUA E TARAUACA ENVIRA,43.467
1200708,Xapuri,XAPURI,12,Acre,ACRE,AC,12005,Brasiléia,BRASILEIA,1202,Vale do Acre,VALE DO ACRE,1,Norte,NORTE,N,120002,Brasiléia,BRASILEIA,1201,Rio Branco,RIO BRANCO,-10.57559909462516,-68.50471376330779,120070,1201,MACRO UNICA - AC,12001,ALTO ACRE,18.243
1200807,Porto Acre,PORTO ACRE,12,Acre,ACRE,AC,12004,Rio Branco,RIO BRANCO,1202,Vale do Acre,VALE DO ACRE,1,Norte,NORTE,N,120001,Rio Branco,RIO BRANCO,1201,Rio Branco,RIO BRANCO,-9.629512548134722,-67.69843352520584,120080,1201,MACRO UNICA - AC,12002,BAIXO ACRE E PURUS,16.693
1300029,Alvarães,ALVARAES,13,Amazonas,AMAZONAS,AM,13005,Tefé,TEFE,1303,Centro Amazonense,CENTRO AMAZONENSE,1,Norte,NORTE,N,130005,Tefé,TEFE,1302,Tefé,TEFE,-3.69473141481007,-65.324499159803,130002,1302,OESTE,13008,TRIANGULO,15.866
1300060,Amaturá,AMATURA,13,Amazonas,AMAZONAS,AM,13003,Alto Solimões,ALTO SOLIMOES,1302,Sudoeste Amazonense,SUDOESTE AMAZONENSE,1,Norte,NORTE,N,130006,Tabatinga,TABATINGA,1302,Tefé,TEFE,-3.418439081639582,-68.28649268717633,130006,1302,OESTE,13009,ALTO SOLIMOES,10.819
1300086,Anamã,ANAMA,13,Amazonas,AMAZONAS,AM,13006,Coari,COARI,1303,Centro Amazonense,CENTRO AMAZONENSE,1,Norte,NORTE,N,130004,Manacapuru,MANACAPURU,1301,Manaus,MANAUS,-3.5018688605924884,-61.71797572754023,130008,1304,CENTRAL,13002,RIO NEGRO E SOLIMOES,9.962
1300102,Anori,ANORI,13,Amazonas,AMAZONAS,AM,13006,Coari,COARI,1303,Centro Amazonense,CENTRO AMAZONENSE,1,Norte,NORTE,N,130003,Coari,COARI,1301,Manaus,MANAUS,-4.198695684627599,-62.09541422762979,130010,1304,CENTRAL,13002,RIO NEGRO E SOLIMOES,17.194
1300144,Apuí,APUI,13,Amazonas,AMAZONAS,AM,13013,Madeira,MADEIRA,1304,Sul Amazonense,SUL AMAZONENSE,1,Norte,NORTE,N,130009,Manicoré,MANICORE,1303,Lábrea,LABREA,-7.7599454048464205,-59.432102725235666,130014,1303,LESTE,13003,RIO MADEIRA,20.647
1300201,Atalaia do Norte,ATALAIA DO NORTE,13,Amazonas,AMAZONAS,AM,13003,Alto Solimões,ALTO SOLIMOES,1302,Sudoeste Amazonense,SUDOESTE AMAZONENSE,1,Norte,NORTE,N,130006,Tabatinga,TABATINGA,1302,Tefé,TEFE,-5.711206816840125,-71.74115840964066,130020,1302,OESTE,13009,ALTO SOLIMOES,15.314
1300300,Autazes,AUTAZES,13,Amazonas,AMAZONAS,AM,13007,Manaus,MANAUS,1303,Centro Amazonense,CENTRO AMAZONENSE,1,Norte,NORTE,N,130001,Manaus,MANAUS,1301,Manaus,MANAUS,-3.7872288101044935,-59.52552383199495,130030,1304,CENTRAL,13001,"MANAUS, ENTORNO E ALTO RIO NEGRO",41.564
1300409,Barcelos,BARCELOS,13,Amazonas,AMAZONAS,AM,13001,Rio Negro,RIO NEGRO,1301,Norte Amazonense,NORTE AMAZONENSE,1,Norte,NORTE,N,130002,São Gabriel da Cachoeira,SAO GABRIEL DA CACHOEIRA,1301,Manaus,MANAUS,-0.4653926486708467,-63.43461320339771,130040,1304,CENTRAL,13001,"MANAUS, ENTORNO E ALTO RIO NEGRO",18.834
1300508,Barreirinha,BARREIRINHA,13,Amazonas,AMAZONAS,AM,13010,Parintins,PARINTINS,1303,Centro Amazonense,CENTRO AMAZONENSE,1,Norte,NORTE,N,130010,Parintins,PARINTINS,1304,Parintins,PARINTINS,-3.1290235001871585,-57.172384113437886,130050,1303,LESTE,13005,BAIXO AMAZONAS,31.051
1300607,Benjamin Constant,BENJAMIN CONSTANT,13,Amazonas,AMAZONAS,AM,13003,Alto Solimões,ALTO SOLIMOES,1302,Sudoeste Amazonense,SUDOESTE AMAZONENSE,1,Norte,NORTE,N,130006,Tabatinga,TABATINGA,1302,Tefé,TEFE,-5.426977556847249,-70.27641298530226,130060,1302,OESTE,13009,ALTO SOLIMOES,37.648
1300631,Beruri,BERURI,13,Amazonas,AMAZONAS,AM,13006,Coari,COARI,1303,Centro Amazonense,CENTRO AMAZONENSE,1,Norte,NORTE,N,130003,Coari,COARI,1301,Manaus,MANAUS,-4.6062364936277085,-61.80435722277339,130063,1304,CENTRAL,13002,RIO NEGRO E SOLIMOES,20.718
1300680,Boa Vista do Ramos,BOA VISTA DO RAMOS,13,Amazonas,AMAZONAS,AM,13010,Parintins,PARINTINS,1303,Centro Amazonense,CENTRO AMAZONENSE,1,Norte,NORTE,N,130010,Parintins,PARINTINS,1304,Parintins,PARINTINS,-3.1378218041505463,-57.67011649123807,130068,1303,LESTE,13005,BAIXO AMAZONAS,23.785
1300706,Boca do Acre,BOCA DO ACRE,13,Amazonas,AMAZONAS,AM,13011,Boca do Acre,BOCA DO ACRE,1304,Sul Amazonense,SUL AMAZONENSE,1,Norte,NORTE,N,130008,Lábrea,LABREA,1303,Lábrea,LABREA,-8.773151430980947,-68.04764004167045,130070,1304,CENTRAL,13006,REGIONAL PURUS,35.447
1300805,Borba,BORBA,13,Amazonas,AMAZONAS,AM,13013,Madeira,MADEIRA,1304,Sul Amazonense,SUL AMAZONENSE,1,Norte,NORTE,N,130001,Manaus,MANAUS,1301,Manaus,MANAUS,-4.957615566971424,-59.53469028377131,130080,1303,LESTE,13003,RIO MADEIRA,33.080
1300839,Caapiranga,CAAPIRANGA,13,Amazonas,AMAZONAS,AM,13006,Coari,COARI,1303,Centro Amazonense,CENTRO AMAZONENSE,1,Norte,NORTE,N,130004,Manacapuru,MANACAPURU,1301,Manaus,MANAUS,-3.082019329005435,-61.87775012945922,130083,1304,CENTRAL,13002,RIO NEGRO E SOLIMOES,13.469
1300904,Canutama,CANUTAMA,13,Amazonas,AMAZONAS,AM,13012,Purus,PURUS,1304,Sul Amazonense,SUL AMAZONENSE,1,Norte,NORTE,N,130008,Lábrea,LABREA,1303,Lábrea,LABREA,-7.30075898283726,-64.06190797812052,130090,1304,CENTRAL,13006,REGIONAL PURUS,16.869
1301001,Carauari,CARAUARI,13,Amazonas,AMAZONAS,AM,13004,Juruá,JURUA,1302,Sudoeste Amazonense,SUDOESTE AMAZONENSE,1,Norte,NORTE,N,130005,Tefé,TEFE,1302,Tefé,TEFE,-5.118525887644101,-67.33747419236752,130100,1302,OESTE,13007,REGIONAL JURUA,28.742
1301100,Careiro,CAREIRO,13,Amazonas,AMAZONAS,AM,13007,Manaus,MANAUS,1303,Centro Amazonense,CENTRO AMAZONENSE,1,Norte,NORTE,N,130001,Manaus,MANAUS,1301,Manaus,MANAUS,-3.770488025799661,-60.18327672778294,130110,1304,CENTRAL,13001,"MANAUS, ENTORNO E ALTO RIO NEGRO",30.792
1301159,Careiro da Várzea,CAREIRO DA VARZEA,13,Amazonas,AMAZONAS,AM,13007,Manaus,MANAUS,1303,Centro Amazonense,CENTRO AMAZONENSE,1,Norte,NORTE,N,130001,Manaus,MANAUS,1301,Manaus,MANAUS,-3.2860023674156897,-59.59868933914598,130115,1304,CENTRAL,13001,"MANAUS, ENTORNO E ALTO RIO NEGRO",19.637
1301209,Coari,COARI,13,Amazonas,AMAZONAS,AM,13006,Coari,COARI,1303,Centro Amazonense,CENTRO AMAZONENSE,1,Norte,NORTE,N,130003,Coari,COARI,1301,Manaus,MANAUS,-4.436349951328109,-64.12531159089332,130120,1304,CENTRAL,13002,RIO NEGRO E SOLIMOES,70.616
1301308,Codajás,CODAJAS,13,Amazonas,AMAZONAS,AM,13006,Coari,COARI,1303,Centro Amazonense,CENTRO AMAZONENSE,1,Norte,NORTE,N,130003,Coari,COARI,1301,Manaus,MANAUS,-3.2889954285700953,-62.97328387097688,130130,1304,CENTRAL,13002,RIO NEGRO E SOLIMOES,23.549
1301407,Eirunepé,EIRUNEPE,13,Amazonas,AMAZONAS,AM,13004,Juruá,JURUA,1302,Sudoeste Amazonense,SUDOESTE AMAZONENSE,1,Norte,NORTE,N,130007,Eirunepé,EIRUNEPE,1302,Tefé,TEFE,-7.022004211786911,-70.21825693693685,130140,1302,OESTE,13007,REGIONAL JURUA,33.170
1301506,Envira,ENVIRA,13,Amazonas,AMAZONAS,AM,13004,Juruá,JURUA,1302,Sudoeste Amazonense,SUDOESTE AMAZONENSE,1,Norte,NORTE,N,130007,Eirunepé,EIRUNEPE,1302,Tefé,TEFE,-7.573288030053866,-70.05506508052767,130150,1302,OESTE,13007,REGIONAL JURUA,17.186
1301605,Fonte Boa,FONTE BOA,13,Amazonas,AMAZONAS,AM,13003,Alto Solimões,ALTO SOLIMOES,1302,Sudoeste Amazonense,SUDOESTE AMAZONENSE,1,Norte,NORTE,N,130005,Tefé,TEFE,1302,Tefé,TEFE,-2.490994599327962,-66.35763698946953,130160,1302,OESTE,13009,ALTO SOLIMOES,25.871
1301654,Guajará,GUAJARA,13,Amazonas,AMAZONAS,AM,13004,Juruá,JURUA,1302,Sudoeste Amazonense,SUDOESTE AMAZONENSE,1,Norte,NORTE,N,130007,Eirunepé,EIRUNEPE,1302,Tefé,TEFE,-7.229782093271704,-72.84458520287855,130165,1302,OESTE,13007,REGIONAL JURUA,13.815
1301704,Humaitá,HUMAITA,13,Amazonas,AMAZONAS,AM,13013,Madeira,MADEIRA,1304,Sul Amazonense,SUL AMAZONENSE,1,Norte,NORTE,N,130009,Manicoré,MANICORE,1303,Lábrea,LABREA,-7.361213571438492,-62.48643912410873,130170,1303,LESTE,13003,RIO MADEIRA,57.473
1301803,Ipixuna,IPIXUNA,13,Amazonas,AMAZONAS,AM,13004,Juruá,JURUA,1302,Sudoeste Amazonense,SUDOESTE AMAZONENSE,1,Norte,NORTE,N,130007,Eirunepé,EIRUNEPE,1302,Tefé,TEFE,-7.180520075760653,-71.4128698727947,130180,1302,OESTE,13007,REGIONAL JURUA,24.311
1301852,Iranduba,IRANDUBA,13,Amazonas,AMAZONAS,AM,13007,Manaus,MANAUS,1303,Centro Amazonense,CENTRO AMAZONENSE,1,Norte,NORTE,N,130001,Manaus,MANAUS,1301,Manaus,MANAUS,-3.0952189891834374,-60.479698740821384,130185,1304,CENTRAL,13001,"MANAUS, ENTORNO E ALTO RIO NEGRO",61.163
1301902,Itacoatiara,ITACOATIARA,13,Amazonas,AMAZONAS,AM,13009,Itacoatiara,ITACOATIARA,1303,Centro Amazonense,CENTRO AMAZONENSE,1,Norte,NORTE,N,130011,Itacoatiara,ITACOATIARA,1304,Parintins,PARINTINS,-3.174117415497231,-58.7753456568872,130190,1303,LESTE,13004,MEDIO AMAZONAS,103.598
1301951,Itamarati,ITAMARATI,13,Amazonas,AMAZONAS,AM,13004,Juruá,JURUA,1302,Sudoeste Amazonense,SUDOESTE AMAZONENSE,1,Norte,NORTE,N,130007,Eirunepé,EIRUNEPE,1302,Tefé,TEFE,-6.682818399695819,-68.11283840290268,130195,1302,OESTE,13007,REGIONAL JURUA,10.937
1302009,Itapiranga,ITAPIRANGA,13,Amazonas,AMAZONAS,AM,13009,Itacoatiara,ITACOATIARA,1303,Centro Amazonense,CENTRO AMAZONENSE,1,Norte,NORTE,N,130011,Itacoatiara,ITACOATIARA,1304,Parintins,PARINTINS,-2.4972370586287873,-58.61327112198789,130200,1303,LESTE,13004,MEDIO AMAZONAS,10.162
1302108,Japurá,JAPURA,13,Amazonas,AMAZONAS,AM,13002,Japurá,JAPURA,1301,Norte Amazonense,NORTE AMAZONENSE,1,Norte,NORTE,N,130005,Tefé,TEFE,1302,Tefé,TEFE,-1.6981815594128356,-68.31969636200428,130210,1302,OESTE,13008,TRIANGULO,8.858
1302207,Juruá,JURUA,13,Amazonas,AMAZONAS,AM,13004,Juruá,JURUA,1302,Sudoeste Amazonense,SUDOESTE AMAZONENSE,1,Norte,NORTE,N,130005,Tefé,TEFE,1302,Tefé,TEFE,-3.5246563079543036,-66.30795682983853,130220,1302,OESTE,13008,TRIANGULO,10.742
1302306,Jutaí,JUTAI,13,Amazonas,AMAZONAS,AM,13003,Alto Solimões,ALTO SOLIMOES,1302,Sudoeste Amazonense,SUDOESTE AMAZONENSE,1,Norte,NORTE,N,130005,Tefé,TEFE,1302,Tefé,TEFE,-4.7152284553571295,-68.40625502740303,130230,1302,OESTE,13009,ALTO SOLIMOES,25.172
1302405,Lábrea,LABREA,13,Amazonas,AMAZONAS,AM,13012,Purus,PURUS,1304,Sul Amazonense,SUL AMAZONENSE,1,Norte,NORTE,N,130008,Lábrea,LABREA,1303,Lábrea,LABREA,-8.37560114058341,-65.81165877244008,130240,1304,CENTRAL,13006,REGIONAL PURUS,45.448
1302504,Manacapuru,MANACAPURU,13,Amazonas,AMAZONAS,AM,13007,Manaus,MANAUS,1303,Centro Amazonense,CENTRO AMAZONENSE,1,Norte,NORTE,N,130004,Manacapuru,MANACAPURU,1301,Manaus,MANAUS,-3.2915421030280303,-60.95874274566678,130250,1304,CENTRAL,13002,RIO NEGRO E SOLIMOES,101.883
1302553,Manaquiri,MANAQUIRI,13,Amazonas,AMAZONAS,AM,13007,Manaus,MANAUS,1303,Centro Amazonense,CENTRO AMAZONENSE,1,Norte,NORTE,N,130001,Manaus,MANAUS,1301,Manaus,MANAUS,-3.779066580062423,-60.69727890640632,130255,1304,CENTRAL,13001,"MANAUS, ENTORNO E ALTO RIO NEGRO",17.107
1302603,Manaus,MANAUS,13,Amazonas,AMAZONAS,AM,13007,Manaus,MANAUS,1303,Centro Amazonense,CENTRO AMAZONENSE,1,Norte,NORTE,N,130001,Manaus,MANAUS,1301,Manaus,MANAUS,-2.6259185886475365,-60.259632517459224,130260,1304,CENTRAL,13001,"MANAUS, ENTORNO E ALTO RIO NEGRO",2.063.689
1302702,Manicoré,MANICORE,13,Amazonas,AMAZONAS,AM,13013,Madeira,MADEIRA,1304,Sul Amazonense,SUL AMAZONENSE,1,Norte,NORTE,N,130009,Manicoré,MANICORE,1303,Lábrea,LABREA,-6.459954989653108,-61.4467778086888,130270,1303,LESTE,13003,RIO MADEIRA,53.914
1302801,Maraã,MARAA,13,Amazonas,AMAZONAS,AM,13002,Japurá,JAPURA,1301,Norte Amazonense,NORTE AMAZONENSE,1,Norte,NORTE,N,130005,Tefé,TEFE,1302,Tefé,TEFE,-2.426831183416188,-65.03954700428582,130280,1302,OESTE,13008,TRIANGULO,15.529
1302900,Maués,MAUES,13,Amazonas,AMAZONAS,AM,13010,Parintins,PARINTINS,1303,Centro Amazonense,CENTRO AMAZONENSE,1,Norte,NORTE,N,130010,Parintins,PARINTINS,1304,Parintins,PARINTINS,-4.984774188441408,-58.06092863148637,130290,1303,LESTE,13005,BAIXO AMAZONAS,61.204
1303007,Nhamundá,NHAMUNDA,13,Amazonas,AMAZONAS,AM,13010,Parintins,PARINTINS,1303,Centro Amazonense,CENTRO AMAZONENSE,1,Norte,NORTE,N,130010,Parintins,PARINTINS,1304,Parintins,PARINTINS,-1.6806081716107966,-57.65618354979516,130300,1303,LESTE,13005,BAIXO AMAZONAS,20.136
1303106,Nova Olinda do Norte,NOVA OLINDA DO NORTE,13,Amazonas,AMAZONAS,AM,13009,Itacoatiara,ITACOATIARA,1303,Centro Amazonense,CENTRO AMAZONENSE,1,Norte,NORTE,N,130001,Manaus,MANAUS,1301,Manaus,MANAUS,-3.989506062170084,-58.599760969629564,130310,1304,CENTRAL,13001,"MANAUS, ENTORNO E ALTO RIO NEGRO",27.062
1303205,Novo Airão,NOVO AIRAO,13,Amazonas,AMAZONAS,AM,13001,Rio Negro,RIO NEGRO,1301,Norte Amazonense,NORTE AMAZONENSE,1,Norte,NORTE,N,130004,Manacapuru,MANACAPURU,1301,Manaus,MANAUS,-2.0482491056887406,-61.70343086545734,130320,1304,CENTRAL,13002,RIO NEGRO E SOLIMOES,15.761
1303304,Novo Aripuanã,NOVO ARIPUANA,13,Amazonas,AMAZONAS,AM,13013,Madeira,MADEIRA,1304,Sul Amazonense,SUL AMAZONENSE,1,Norte,NORTE,N,130009,Manicoré,MANICORE,1303,Lábrea,LABREA,-6.824022538283983,-60.47715750745323,130330,1303,LESTE,13003,RIO MADEIRA,23.818
1303403,Parintins,PARINTINS,13,Amazonas,AMAZONAS,AM,13010,Parintins,PARINTINS,1303,Centro Amazonense,CENTRO AMAZONENSE,1,Norte,NORTE,N,130010,Parintins,PARINTINS,1304,Parintins,PARINTINS,-2.688101632215178,-56.85464239669321,130340,1303,LESTE,13005,BAIXO AMAZONAS,96.372
1303502,Pauini,PAUINI,13,Amazonas,AMAZONAS,AM,13011,Boca do Acre,BOCA DO ACRE,1304,Sul Amazonense,SUL AMAZONENSE,1,Norte,NORTE,N,130008,Lábrea,LABREA,1303,Lábrea,LABREA,-7.757803385506688,-68.1971306901144,130350,1304,CENTRAL,13006,REGIONAL PURUS,19.373
1303536,Presidente Figueiredo,PRESIDENTE FIGUEIREDO,13,Amazonas,AMAZONAS,AM,13008,Rio Preto da Eva,RIO PRETO DA EVA,1303,Centro Amazonense,CENTRO AMAZONENSE,1,Norte,NORTE,N,130001,Manaus,MANAUS,1301,Manaus,MANAUS,-1.3709152491754886,-59.989553878696675,130353,1304,CENTRAL,13001,"MANAUS, ENTORNO E ALTO RIO NEGRO",30.668
1303569,Rio Preto da Eva,RIO PRETO DA EVA,13,Amazonas,AMAZONAS,AM,13008,Rio Preto da Eva,RIO PRETO DA EVA,1303,Centro Amazonense,CENTRO AMAZONENSE,1,Norte,NORTE,N,130001,Manaus,MANAUS,1301,Manaus,MANAUS,-2.529820734823503,-59.63838332063155,130356,1304,CENTRAL,13001,"MANAUS, ENTORNO E ALTO RIO NEGRO",24.936
1303601,Santa Isabel do Rio Negro,SANTA ISABEL DO RIO NEGRO,13,Amazonas,AMAZONAS,AM,13001,Rio Negro,RIO NEGRO,1301,Norte Amazonense,NORTE AMAZONENSE,1,Norte,NORTE,N,130002,São Gabriel da Cachoeira,SAO GABRIEL DA CACHOEIRA,1301,Manaus,MANAUS,-0.3183350957671674,-65.52152803951182,130360,1304,CENTRAL,13001,"MANAUS, ENTORNO E ALTO RIO NEGRO",14.164
1303700,Santo Antônio do Içá,SANTO ANTONIO DO ICA,13,Amazonas,AMAZONAS,AM,13003,Alto Solimões,ALTO SOLIMOES,1302,Sudoeste Amazonense,SUDOESTE AMAZONENSE,1,Norte,NORTE,N,130006,Tabatinga,TABATINGA,1302,Tefé,TEFE,-3.0528571779382356,-69.09016582428818,130370,1302,OESTE,13009,ALTO SOLIMOES,28.211
1303809,São Gabriel da Cachoeira,SAO GABRIEL DA CACHOEIRA,13,Amazonas,AMAZONAS,AM,13001,Rio Negro,RIO NEGRO,1301,Norte Amazonense,NORTE AMAZONENSE,1,Norte,NORTE,N,130002,São Gabriel da Cachoeira,SAO GABRIEL DA CACHOEIRA,1301,Manaus,MANAUS,0.36828207425056364,-67.99937566753641,130380,1304,CENTRAL,13001,"MANAUS, ENTORNO E ALTO RIO NEGRO",51.795
1303908,São Paulo de Olivença,SAO PAULO DE OLIVENCA,13,Amazonas,AMAZONAS,AM,13003,Alto Solimões,ALTO SOLIMOES,1302,Sudoeste Amazonense,SUDOESTE AMAZONENSE,1,Norte,NORTE,N,130006,Tabatinga,TABATINGA,1302,Tefé,TEFE,-4.501417140191645,-69.4511096472198,130390,1302,OESTE,13009,ALTO SOLIMOES,32.967
1303957,São Sebastião do Uatumã,SAO SEBASTIAO DO UATUMA,13,Amazonas,AMAZONAS,AM,13010,Parintins,PARINTINS,1303,Centro Amazonense,CENTRO AMAZONENSE,1,Norte,NORTE,N,130011,Itacoatiara,ITACOATIARA,1304,Parintins,PARINTINS,-1.9417678412160857,-58.70525260257849,130395,1303,LESTE,13004,MEDIO AMAZONAS,11.670
1304005,Silves,SILVES,13,Amazonas,AMAZONAS,AM,13009,Itacoatiara,ITACOATIARA,1303,Centro Amazonense,CENTRO AMAZONENSE,1,Norte,NORTE,N,130011,Itacoatiara,ITACOATIARA,1304,Parintins,PARINTINS,-2.820548700296913,-58.53708889918316,130400,1303,LESTE,13004,MEDIO AMAZONAS,11.559
1304062,Tabatinga,TABATINGA,13,Amazonas,AMAZONAS,AM,13003,Alto Solimões,ALTO SOLIMOES,1302,Sudoeste Amazonense,SUDOESTE AMAZONENSE,1,Norte,NORTE,N,130006,Tabatinga,TABATINGA,1302,Tefé,TEFE,-4.028217481920456,-69.67757766498842,130406,1302,OESTE,13009,ALTO SOLIMOES,66.764
1304104,Tapauá,TAPAUA,13,Amazonas,AMAZONAS,AM,13012,Purus,PURUS,1304,Sul Amazonense,SUL AMAZONENSE,1,Norte,NORTE,N,130008,Lábrea,LABREA,1303,Lábrea,LABREA,-6.093701047753767,-64.95579215638948,130410,1304,CENTRAL,13006,REGIONAL PURUS,19.599
1304203,Tefé,TEFE,13,Amazonas,AMAZONAS,AM,13005,Tefé,TEFE,1303,Centro Amazonense,CENTRO AMAZONENSE,1,Norte,NORTE,N,130005,Tefé,TEFE,1302,Tefé,TEFE,-4.47009837325392,-65.53153052377645,130420,1302,OESTE,13008,TRIANGULO,73.669
1304237,Tonantins,TONANTINS,13,Amazonas,AMAZONAS,AM,13003,Alto Solimões,ALTO SOLIMOES,1302,Sudoeste Amazonense,SUDOESTE AMAZONENSE,1,Norte,NORTE,N,130006,Tabatinga,TABATINGA,1302,Tefé,TEFE,-2.691798721588162,-67.82600840607998,130423,1302,OESTE,13009,ALTO SOLIMOES,19.247
1304260,Uarini,UARINI,13,Amazonas,AMAZONAS,AM,13005,Tefé,TEFE,1303,Centro Amazonense,CENTRO AMAZONENSE,1,Norte,NORTE,N,130005,Tefé,TEFE,1302,Tefé,TEFE,-3.1656145257985875,-65.41078241095053,130426,1302,OESTE,13008,TRIANGULO,14.431
1304302,Urucará,URUCARA,13,Amazonas,AMAZONAS,AM,13010,Parintins,PARINTINS,1303,Centro Amazonense,CENTRO AMAZONENSE,1,Norte,NORTE,N,130011,Itacoatiara,ITACOATIARA,1304,Parintins,PARINTINS,-0.8957971855471044,-59.02833376303394,130430,1303,LESTE,13004,MEDIO AMAZONAS,18.631
1304401,Urucurituba,URUCURITUBA,13,Amazonas,AMAZONAS,AM,13009,Itacoatiara,ITACOATIARA,1303,Centro Amazonense,CENTRO AMAZONENSE,1,Norte,NORTE,N,130011,Itacoatiara,ITACOATIARA,1304,Parintins,PARINTINS,-2.815403963025868,-57.77347104756639,130440,1303,LESTE,13004,MEDIO AMAZONAS,23.945
1400027,Amajari,AMAJARI,14,Roraima,RORAIMA,RR,14001,Boa Vista,BOA VISTA,1401,Norte de Roraima,NORTE DE RORAIMA,1,Norte,NORTE,N,140002,Pacaraima,PACARAIMA,1401,Boa Vista,BOA VISTA,3.7324376502228316,-62.432495251836365,140002,1401,MACRO-RORAIMA,14001,CENTRO NORTE,13.927
1400050,Alto Alegre,ALTO ALEGRE,14,Roraima,RORAIMA,RR,14001,Boa Vista,BOA VISTA,1401,Norte de Roraima,NORTE DE RORAIMA,1,Norte,NORTE,N,140001,Boa Vista,BOA VISTA,1401,Boa Vista,BOA VISTA,3.071631027942855,-62.74072003757145,140005,1401,MACRO-RORAIMA,14001,CENTRO NORTE,21.096
1400100,Boa Vista,BOA VISTA,14,Roraima,RORAIMA,RR,14001,Boa Vista,BOA VISTA,1401,Norte de Roraima,NORTE DE RORAIMA,1,Norte,NORTE,N,140001,Boa Vista,BOA VISTA,1401,Boa Vista,BOA VISTA,3.117913774938734,-60.71795812934748,140010,1401,MACRO-RORAIMA,14001,CENTRO NORTE,413.486
1400159,Bonfim,BONFIM,14,Roraima,RORAIMA,RR,14002,Nordeste de Roraima,NORDESTE DE RORAIMA,1401,Norte de Roraima,NORTE DE RORAIMA,1,Norte,NORTE,N,140001,Boa Vista,BOA VISTA,1401,Boa Vista,BOA VISTA,2.7876147803074396,-60.10062152298974,140015,1401,MACRO-RORAIMA,14001,CENTRO NORTE,13.923
1400175,Cantá,CANTA,14,Roraima,RORAIMA,RR,14002,Nordeste de Roraima,NORDESTE DE RORAIMA,1401,Norte de Roraima,NORTE DE RORAIMA,1,Norte,NORTE,N,140001,Boa Vista,BOA VISTA,1401,Boa Vista,BOA VISTA,2.2728420802745566,-60.54228443189126,140017,1401,MACRO-RORAIMA,14001,CENTRO NORTE,18.682
1400209,Caracaraí,CARACARAI,14,Roraima,RORAIMA,RR,14003,Caracaraí,CARACARAI,1402,Sul de Roraima,SUL DE RORAIMA,1,Norte,NORTE,N,140004,Caracaraí,CARACARAI,1402,Rorainópolis - Caracaraí,RORAINOPOLIS - CARACARAI,0.9908434863877905,-61.471372413753926,140020,1401,MACRO-RORAIMA,14002,SUL,20.957
1400233,Caroebe,CAROEBE,14,Roraima,RORAIMA,RR,14004,Sudeste de Roraima,SUDESTE DE RORAIMA,1402,Sul de Roraima,SUL DE RORAIMA,1,Norte,NORTE,N,140003,Rorainópolis,RORAINOPOLIS,1402,Rorainópolis - Caracaraí,RORAINOPOLIS - CARACARAI,0.914626250677442,-59.33817940729379,140023,1401,MACRO-RORAIMA,14002,SUL,10.656
1400282,Iracema,IRACEMA,14,Roraima,RORAIMA,RR,14003,Caracaraí,CARACARAI,1402,Sul de Roraima,SUL DE RORAIMA,1,Norte,NORTE,N,140004,Caracaraí,CARACARAI,1402,Rorainópolis - Caracaraí,RORAINOPOLIS - CARACARAI,2.1819535501432425,-62.40231990462794,140028,1401,MACRO-RORAIMA,14002,SUL,10.023
1400308,Mucajaí,MUCAJAI,14,Roraima,RORAIMA,RR,14003,Caracaraí,CARACARAI,1402,Sul de Roraima,SUL DE RORAIMA,1,Norte,NORTE,N,140001,Boa Vista,BOA VISTA,1401,Boa Vista,BOA VISTA,2.5109713420546655,-61.99678819259419,140030,1401,MACRO-RORAIMA,14001,CENTRO NORTE,18.095
1400407,Normandia,NORMANDIA,14,Roraima,RORAIMA,RR,14002,Nordeste de Roraima,NORDESTE DE RORAIMA,1401,Norte de Roraima,NORTE DE RORAIMA,1,Norte,NORTE,N,140002,Pacaraima,PACARAIMA,1401,Boa Vista,BOA VISTA,3.878889674522042,-60.06542879717545,140040,1401,MACRO-RORAIMA,14001,CENTRO NORTE,13.986
1400456,Pacaraima,PACARAIMA,14,Roraima,RORAIMA,RR,14001,Boa Vista,BOA VISTA,1401,Norte de Roraima,NORTE DE RORAIMA,1,Norte,NORTE,N,140002,Pacaraima,PACARAIMA,1401,Boa Vista,BOA VISTA,4.168271949922828,-60.839069253313106,140045,1401,MACRO-RORAIMA,14001,CENTRO NORTE,19.305
1400472,Rorainópolis,RORAINOPOLIS,14,Roraima,RORAIMA,RR,14004,Sudeste de Roraima,SUDESTE DE RORAIMA,1402,Sul de Roraima,SUL DE RORAIMA,1,Norte,NORTE,N,140003,Rorainópolis,RORAINOPOLIS,1402,Rorainópolis - Caracaraí,RORAINOPOLIS - CARACARAI,0.03804459448873943,-61.011170437725106,140047,1401,MACRO-RORAIMA,14002,SUL,32.647
1400506,São João da Baliza,SAO JOAO DA BALIZA,14,Roraima,RORAIMA,RR,14004,Sudeste de Roraima,SUDESTE DE RORAIMA,1402,Sul de Roraima,SUL DE RORAIMA,1,Norte,NORTE,N,140003,Rorainópolis,RORAINOPOLIS,1402,Rorainópolis - Caracaraí,RORAINOPOLIS - CARACARAI,0.6357523498896268,-59.84501483205007,140050,1401,MACRO-RORAIMA,14002,SUL,8.858
1400605,São Luiz,SAO LUIZ,14,Roraima,RORAIMA,RR,14004,Sudeste de Roraima,SUDESTE DE RORAIMA,1402,Sul de Roraima,SUL DE RORAIMA,1,Norte,NORTE,N,140003,Rorainópolis,RORAINOPOLIS,1402,Rorainópolis - Caracaraí,RORAINOPOLIS - CARACARAI,0.8844353307004843,-60.15183807286841,140060,1401,MACRO-RORAIMA,14002,SUL,7.315
1400704,Uiramutã,UIRAMUTA,14,Roraima,RORAIMA,RR,14002,Nordeste de Roraima,NORDESTE DE RORAIMA,1401,Norte de Roraima,NORTE DE RORAIMA,1,Norte,NORTE,N,140002,Pacaraima,PACARAIMA,1401,Boa Vista,BOA VISTA,4.684751918832446,-60.27862129875621,140070,1401,MACRO-RORAIMA,14001,CENTRO NORTE,13.751
1500107,Abaetetuba,ABAETETUBA,15,Pará,PARA,PA,15011,Cametá,CAMETA,1504,Nordeste Paraense,NORDESTE PARAENSE,1,Norte,NORTE,N,150003,Abaetetuba,ABAETETUBA,1501,Belém,BELEM,-1.7302606498244748,-48.88307023137984,150010,1512,MACRORREGIONAL I,15011,TOCANTINS,158.188
1500131,Abel Figueiredo,ABEL FIGUEIREDO,15,Pará,PARA,PA,15017,Paragominas,PARAGOMINAS,1506,Sudeste Paraense,SUDESTE PARAENSE,1,Norte,NORTE,N,150009,Marabá,MARABA,1503,Marabá,MARABA,-4.957334788257834,-48.42458446733672,150013,1509,MACRORREGIONAL IV,15003,CARAJAS,7.030
1500206,Acará,ACARA,15,Pará,PARA,PA,15012,Tomé-Açu,TOME-ACU,1504,Nordeste Paraense,NORDESTE PARAENSE,1,Norte,NORTE,N,150001,Belém,BELEM,1501,Belém,BELEM,-2.0353939057915285,-48.41144926214638,150020,1511,MACRORREGIONAL II,15007,METROPOLITANA II,59.023
1500305,Afuá,AFUA,15,Pará,PARA,PA,15005,Furos de Breves,FUROS DE BREVES,1502,Marajó,MARAJO,1,Norte,NORTE,N,150020,Breves,BREVES,1507,Breves,BREVES,-0.2628431030509888,-50.725914551611865,150030,1512,MACRORREGIONAL I,15013,MARAJO I,37.765
1500347,Água Azul do Norte,AGUA AZUL DO NORTE,15,Pará,PARA,PA,15019,Parauapebas,PARAUAPEBAS,1506,Sudeste Paraense,SUDESTE PARAENSE,1,Norte,NORTE,N,150014,Xinguara,XINGUARA,1504,Redenção,REDENCAO,-6.772985334299052,-50.43014150309101,150034,1509,MACRORREGIONAL IV,15001,ARAGUAIA,18.080
1500404,Alenquer,ALENQUER,15,Pará,PARA,PA,15002,Santarém,SANTAREM,1501,Baixo Amazonas,BAIXO AMAZONAS,1,Norte,NORTE,N,150015,Santarém,SANTAREM,1505,Santarém,SANTAREM,-0.6046023754120075,-55.03916954606274,150040,1510,MACRORREGIONAL III,15002,BAIXO AMAZONAS,69.377
1500503,Almeirim,ALMEIRIM,15,Pará,PARA,PA,15003,Almeirim,ALMEIRIM,1501,Baixo Amazonas,BAIXO AMAZONAS,1,Norte,NORTE,N,150019,Almeirim - Porto de Moz,ALMEIRIM - PORTO DE MOZ,1506,Altamira,ALTAMIRA,0.2848428382359744,-53.89372033273578,150050,1510,MACRORREGIONAL III,15002,BAIXO AMAZONAS,34.280
1500602,Altamira,ALTAMIRA,15,Pará,PARA,PA,15015,Altamira,ALTAMIRA,1505,Sudoeste Paraense,SUDOESTE PARAENSE,1,Norte,NORTE,N,150018,Altamira,ALTAMIRA,1506,Altamira,ALTAMIRA,-6.486176592873986,-53.88668274329801,150060,1510,MACRORREGIONAL III,15012,XINGU,126.279
1500701,Anajás,ANAJAS,15,Pará,PARA,PA,15005,Furos de Breves,FUROS DE BREVES,1502,Marajó,MARAJO,1,Norte,NORTE,N,150020,Breves,BREVES,1507,Breves,BREVES,-0.8271307118938608,-49.9613952970705,150070,1512,MACRORREGIONAL I,15014,MARAJO II,28.011
1500800,Ananindeua,ANANINDEUA,15,Pará,PARA,PA,15007,Belém,BELEM,1503,Metropolitana de Belém,METROPOLITANA DE BELEM,1,Norte,NORTE,N,150001,Belém,BELEM,1501,Belém,BELEM,-1.3340986259346888,-48.38353899086946,150080,1512,MACRORREGIONAL I,15006,METROPOLITANA I,478.778
1500859,Anapu,ANAPU,15,Pará,PARA,PA,15015,Altamira,ALTAMIRA,1505,Sudoeste Paraense,SUDOESTE PARAENSE,1,Norte,NORTE,N,150018,Altamira,ALTAMIRA,1506,Altamira,ALTAMIRA,-3.9971707429577403,-51.301276575879335,150085,1510,MACRORREGIONAL III,15012,XINGU,31.850
1500909,Augusto Corrêa,AUGUSTO CORREA,15,Pará,PARA,PA,15010,Bragantina,BRAGANTINA,1504,Nordeste Paraense,NORDESTE PARAENSE,1,Norte,NORTE,N,150005,Bragança,BRAGANCA,1502,Castanhal,CASTANHAL,-1.1047345111431581,-46.5074200277611,150090,1511,MACRORREGIONAL II,15009,RIO CAETES,44.573
1500958,Aurora do Pará,AURORA DO PARA,15,Pará,PARA,PA,15013,Guamá,GUAMA,1504,Nordeste Paraense,NORDESTE PARAENSE,1,Norte,NORTE,N,150007,Paragominas,PARAGOMINAS,1502,Castanhal,CASTANHAL,-2.2311881318113773,-47.72636406492291,150095,1511,MACRORREGIONAL II,15008,METROPOLITANA III,23.774
1501006,Aveiro,AVEIRO,15,Pará,PARA,PA,15014,Itaituba,ITAITUBA,1505,Sudoeste Paraense,SUDOESTE PARAENSE,1,Norte,NORTE,N,150016,Itaituba,ITAITUBA,1505,Santarém,SANTAREM,-3.6672226990683017,-56.01630203855654,150100,1510,MACRORREGIONAL III,15010,TAPAJOS,18.290
1501105,Bagre,BAGRE,15,Pará,PARA,PA,15004,Portel,PORTEL,1502,Marajó,MARAJO,1,Norte,NORTE,N,150020,Breves,BREVES,1507,Breves,BREVES,-2.3731294432959738,-50.18176879073285,150110,1512,MACRORREGIONAL I,15014,MARAJO II,31.892
1501204,Baião,BAIAO,15,Pará,PARA,PA,15011,Cametá,CAMETA,1504,Nordeste Paraense,NORDESTE PARAENSE,1,Norte,NORTE,N,150011,Tucuruí,TUCURUI,1503,Marabá,MARABA,-3.1298293690919547,-49.69897815856638,150120,1512,MACRORREGIONAL I,15011,TOCANTINS,51.641
1501253,Bannach,BANNACH,15,Pará,PARA,PA,15018,São Félix do Xingu,SAO FELIX DO XINGU,1506,Sudeste Paraense,SUDESTE PARAENSE,1,Norte,NORTE,N,150012,Redenção,REDENCAO,1504,Redenção,REDENCAO,-7.486378404361438,-50.63441928411695,150125,1509,MACRORREGIONAL IV,15001,ARAGUAIA,4.031
1501303,Barcarena,BARCARENA,15,Pará,PARA,PA,15007,Belém,BELEM,1503,Metropolitana de Belém,METROPOLITANA DE BELEM,1,Norte,NORTE,N,150001,Belém,BELEM,1501,Belém,BELEM,-1.4986192202032493,-48.63423114120614,150130,1512,MACRORREGIONAL I,15011,TOCANTINS,126.650
1501402,Belém,BELEM,15,Pará,PARA,PA,15007,Belém,BELEM,1503,Metropolitana de Belém,METROPOLITANA DE BELEM,1,Norte,NORTE,N,150001,Belém,BELEM,1501,Belém,BELEM,-1.2407138365463266,-48.45991366796428,150140,1512,MACRORREGIONAL I,15006,METROPOLITANA I,1.303.403
1501451,Belterra,BELTERRA,15,Pará,PARA,PA,15002,Santarém,SANTAREM,1501,Baixo Amazonas,BAIXO AMAZONAS,1,Norte,NORTE,N,150015,Santarém,SANTAREM,1505,Santarém,SANTAREM,-3.191122713540079,-54.99285443743329,150145,1510,MACRORREGIONAL III,15002,BAIXO AMAZONAS,18.099
1501501,Benevides,BENEVIDES,15,Pará,PARA,PA,15007,Belém,BELEM,1503,Metropolitana de Belém,METROPOLITANA DE BELEM,1,Norte,NORTE,N,150001,Belém,BELEM,1501,Belém,BELEM,-1.3396228787757625,-48.27561711373988,150150,1512,MACRORREGIONAL I,15006,METROPOLITANA I,63.567
1501576,Bom Jesus do Tocantins,BOM JESUS DO TOCANTINS,15,Pará,PARA,PA,15017,Paragominas,PARAGOMINAS,1506,Sudeste Paraense,SUDESTE PARAENSE,1,Norte,NORTE,N,150009,Marabá,MARABA,1503,Marabá,MARABA,-5.054256464463784,-48.763511191523996,150157,1509,MACRORREGIONAL IV,15003,CARAJAS,18.005
1501600,Bonito,BONITO,15,Pará,PARA,PA,15010,Bragantina,BRAGANTINA,1504,Nordeste Paraense,NORDESTE PARAENSE,1,Norte,NORTE,N,150006,Capanema,CAPANEMA,1502,Castanhal,CASTANHAL,-1.387336632684169,-47.30227454340453,150160,1511,MACRORREGIONAL II,15009,RIO CAETES,12.622
1501709,Bragança,BRAGANCA,15,Pará,PARA,PA,15010,Bragantina,BRAGANTINA,1504,Nordeste Paraense,NORDESTE PARAENSE,1,Norte,NORTE,N,150005,Bragança,BRAGANCA,1502,Castanhal,CASTANHAL,-1.1930734770995148,-46.763586930898114,150170,1511,MACRORREGIONAL II,15009,RIO CAETES,123.082
1501725,Brasil Novo,BRASIL NOVO,15,Pará,PARA,PA,15015,Altamira,ALTAMIRA,1505,Sudoeste Paraense,SUDOESTE PARAENSE,1,Norte,NORTE,N,150018,Altamira,ALTAMIRA,1506,Altamira,ALTAMIRA,-3.2921115094505917,-52.68540533803017,150172,1510,MACRORREGIONAL III,15012,XINGU,24.718
1501758,Brejo Grande do Araguaia,BREJO GRANDE DO ARAGUAIA,15,Pará,PARA,PA,15020,Marabá,MARABA,1506,Sudeste Paraense,SUDESTE PARAENSE,1,Norte,NORTE,N,150009,Marabá,MARABA,1503,Marabá,MARABA,-5.735486296725346,-48.43187927851353,150175,1509,MACRORREGIONAL IV,15003,CARAJAS,6.783
1501782,Breu Branco,BREU BRANCO,15,Pará,PARA,PA,15016,Tucuruí,TUCURUI,1506,Sudeste Paraense,SUDESTE PARAENSE,1,Norte,NORTE,N,150011,Tucuruí,TUCURUI,1503,Marabá,MARABA,-3.733501833139125,-49.371210200492335,150178,1509,MACRORREGIONAL IV,15004,LAGO DE TUCURUI,45.712
1501808,Breves,BREVES,15,Pará,PARA,PA,15005,Furos de Breves,FUROS DE BREVES,1502,Marajó,MARAJO,1,Norte,NORTE,N,150020,Breves,BREVES,1507,Breves,BREVES,-1.1209093860204926,-50.62814611521864,150180,1512,MACRORREGIONAL I,15014,MARAJO II,106.968
1501907,Bujaru,BUJARU,15,Pará,PARA,PA,15008,Castanhal,CASTANHAL,1503,Metropolitana de Belém,METROPOLITANA DE BELEM,1,Norte,NORTE,N,150001,Belém,BELEM,1501,Belém,BELEM,-1.6329619951248906,-48.08989197925784,150190,1511,MACRORREGIONAL II,15007,METROPOLITANA II,24.383
1501956,Cachoeira do Piriá,CACHOEIRA DO PIRIA,15,Pará,PARA,PA,15013,Guamá,GUAMA,1504,Nordeste Paraense,NORDESTE PARAENSE,1,Norte,NORTE,N,150005,Bragança,BRAGANCA,1502,Castanhal,CASTANHAL,-1.988673925072758,-46.443214609466885,150195,1511,MACRORREGIONAL II,15009,RIO CAETES,19.630
1502004,Cachoeira do Arari,CACHOEIRA DO ARARI,15,Pará,PARA,PA,15006,Arari,ARARI,1502,Marajó,MARAJO,1,Norte,NORTE,N,150021,Soure-Salvaterra,SOURE-SALVATERRA,1507,Breves,BREVES,-0.8694299561490177,-48.87724343353961,150200,1512,MACRORREGIONAL I,15013,MARAJO I,23.981
1502103,Cametá,CAMETA,15,Pará,PARA,PA,15011,Cametá,CAMETA,1504,Nordeste Paraense,NORDESTE PARAENSE,1,Norte,NORTE,N,150002,Cametá,CAMETA,1501,Belém,BELEM,-2.25298764988731,-49.51353760108678,150210,1512,MACRORREGIONAL I,15011,TOCANTINS,134.184
1502152,Canaã dos Carajás,CANAA DOS CARAJAS,15,Pará,PARA,PA,15019,Parauapebas,PARAUAPEBAS,1506,Sudeste Paraense,SUDESTE PARAENSE,1,Norte,NORTE,N,150010,Parauapebas,PARAUAPEBAS,1503,Marabá,MARABA,-6.424209170392011,-50.085670197394734,150215,1509,MACRORREGIONAL IV,15003,CARAJAS,77.079
1502202,Capanema,CAPANEMA,15,Pará,PARA,PA,15010,Bragantina,BRAGANTINA,1504,Nordeste Paraense,NORDESTE PARAENSE,1,Norte,NORTE,N,150006,Capanema,CAPANEMA,1502,Castanhal,CASTANHAL,-1.1420757016103187,-47.117900167797394,150220,1511,MACRORREGIONAL II,15009,RIO CAETES,70.394
1502301,Capitão Poço,CAPITAO POCO,15,Pará,PARA,PA,15013,Guamá,GUAMA,1504,Nordeste Paraense,NORDESTE PARAENSE,1,Norte,NORTE,N,150008,Capitão Poço,CAPITAO POCO,1502,Castanhal,CASTANHAL,-2.0421704880688396,-47.23340111228105,150230,1511,MACRORREGIONAL II,15008,METROPOLITANA III,56.506
1502400,Castanhal,CASTANHAL,15,Pará,PARA,PA,15008,Castanhal,CASTANHAL,1503,Metropolitana de Belém,METROPOLITANA DE BELEM,1,Norte,NORTE,N,150004,Castanhal,CASTANHAL,1502,Castanhal,CASTANHAL,-1.2685145882886006,-47.876985794632056,150240,1511,MACRORREGIONAL II,15008,METROPOLITANA III,192.256
1502509,Chaves,CHAVES,15,Pará,PARA,PA,15006,Arari,ARARI,1502,Marajó,MARAJO,1,Norte,NORTE,N,150020,Breves,BREVES,1507,Breves,BREVES,-0.03239849467755415,-49.83790120836862,150250,1512,MACRORREGIONAL I,15013,MARAJO I,20.757
1502608,Colares,COLARES,15,Pará,PARA,PA,15009,Salgado,SALGADO,1504,Nordeste Paraense,NORDESTE PARAENSE,1,Norte,NORTE,N,150001,Belém,BELEM,1501,Belém,BELEM,-0.935833387735662,-48.273717562237984,150260,1511,MACRORREGIONAL II,15007,METROPOLITANA II,12.868
1502707,Conceição do Araguaia,CONCEICAO DO ARAGUAIA,15,Pará,PARA,PA,15022,Conceição do Araguaia,CONCEICAO DO ARAGUAIA,1506,Sudeste Paraense,SUDESTE PARAENSE,1,Norte,NORTE,N,150012,Redenção,REDENCAO,1504,Redenção,REDENCAO,-8.182486884669693,-49.512708795250816,150270,1509,MACRORREGIONAL IV,15001,ARAGUAIA,44.617
1502756,Concórdia do Pará,CONCORDIA DO PARA,15,Pará,PARA,PA,15012,Tomé-Açu,TOME-ACU,1504,Nordeste Paraense,NORDESTE PARAENSE,1,Norte,NORTE,N,150001,Belém,BELEM,1501,Belém,BELEM,-1.881703356155783,-47.9746540854732,150275,1511,MACRORREGIONAL II,15007,METROPOLITANA II,26.881
1502764,Cumaru do Norte,CUMARU DO NORTE,15,Pará,PARA,PA,15018,São Félix do Xingu,SAO FELIX DO XINGU,1506,Sudeste Paraense,SUDESTE PARAENSE,1,Norte,NORTE,N,150012,Redenção,REDENCAO,1504,Redenção,REDENCAO,-8.458170641314393,-51.221035763582265,150276,1509,MACRORREGIONAL IV,15001,ARAGUAIA,14.036
1502772,Curionópolis,CURIONOPOLIS,15,Pará,PARA,PA,15019,Parauapebas,PARAUAPEBAS,1506,Sudeste Paraense,SUDESTE PARAENSE,1,Norte,NORTE,N,150010,Parauapebas,PARAUAPEBAS,1503,Marabá,MARABA,-6.228931657496259,-49.624612824331145,150277,1509,MACRORREGIONAL IV,15003,CARAJAS,19.950
1502806,Curralinho,CURRALINHO,15,Pará,PARA,PA,15005,Furos de Breves,FUROS DE BREVES,1502,Marajó,MARAJO,1,Norte,NORTE,N,150020,Breves,BREVES,1507,Breves,BREVES,-1.583461863323297,-49.98804410459988,150280,1512,MACRORREGIONAL I,15014,MARAJO II,33.903
1502855,Curuá,CURUA,15,Pará,PARA,PA,15002,Santarém,SANTAREM,1501,Baixo Amazonas,BAIXO AMAZONAS,1,Norte,NORTE,N,150017,Oriximiná,ORIXIMINA,1505,Santarém,SANTAREM,-1.84576033747644,-55.11348259428794,150285,1510,MACRORREGIONAL III,15002,BAIXO AMAZONAS,14.117
1502905,Curuçá,CURUCA,15,Pará,PARA,PA,15009,Salgado,SALGADO,1504,Nordeste Paraense,NORDESTE PARAENSE,1,Norte,NORTE,N,150004,Castanhal,CASTANHAL,1502,Castanhal,CASTANHAL,-0.7427629261940117,-47.863878332879516,150290,1511,MACRORREGIONAL II,15008,METROPOLITANA III,41.262
1502939,Dom Eliseu,DOM ELISEU,15,Pará,PARA,PA,15017,Paragominas,PARAGOMINAS,1506,Sudeste Paraense,SUDESTE PARAENSE,1,Norte,NORTE,N,150007,Paragominas,PARAGOMINAS,1502,Castanhal,CASTANHAL,-4.186577431942354,-47.89810420528362,150293,1509,MACRORREGIONAL IV,15003,CARAJAS,58.484
1502954,Eldorado do Carajás,ELDORADO DO CARAJAS,15,Pará,PARA,PA,15019,Parauapebas,PARAUAPEBAS,1506,Sudeste Paraense,SUDESTE PARAENSE,1,Norte,NORTE,N,150010,Parauapebas,PARAUAPEBAS,1503,Marabá,MARABA,-6.069649326281319,-49.24544312580827,150295,1509,MACRORREGIONAL IV,15003,CARAJAS,28.192
1503002,Faro,FARO,15,Pará,PARA,PA,15001,Óbidos,OBIDOS,1501,Baixo Amazonas,BAIXO AMAZONAS,1,Norte,NORTE,N,150017,Oriximiná,ORIXIMINA,1505,Santarém,SANTAREM,-1.1591532367173796,-57.80590316225885,150300,1510,MACRORREGIONAL III,15002,BAIXO AMAZONAS,8.728
1503044,Floresta do Araguaia,FLORESTA DO ARAGUAIA,15,Pará,PARA,PA,15022,Conceição do Araguaia,CONCEICAO DO ARAGUAIA,1506,Sudeste Paraense,SUDESTE PARAENSE,1,Norte,NORTE,N,150012,Redenção,REDENCAO,1504,Redenção,REDENCAO,-7.548316226049887,-49.57603560672509,150304,1509,MACRORREGIONAL IV,15001,ARAGUAIA,17.898
1503077,Garrafão do Norte,GARRAFAO DO NORTE,15,Pará,PARA,PA,15013,Guamá,GUAMA,1504,Nordeste Paraense,NORDESTE PARAENSE,1,Norte,NORTE,N,150008,Capitão Poço,CAPITAO POCO,1502,Castanhal,CASTANHAL,-2.168312729032665,-47.07598695981395,150307,1511,MACRORREGIONAL II,15008,METROPOLITANA III,24.703
1503093,Goianésia do Pará,GOIANESIA DO PARA,15,Pará,PARA,PA,15017,Paragominas,PARAGOMINAS,1506,Sudeste Paraense,SUDESTE PARAENSE,1,Norte,NORTE,N,150011,Tucuruí,TUCURUI,1503,Marabá,MARABA,-4.027189912780826,-49.00572076916977,150309,1509,MACRORREGIONAL IV,15004,LAGO DE TUCURUI,26.362
1503101,Gurupá,GURUPA,15,Pará,PARA,PA,15004,Portel,PORTEL,1502,Marajó,MARAJO,1,Norte,NORTE,N,150020,Breves,BREVES,1507,Breves,BREVES,-1.1494251726114304,-51.55387838995486,150310,1512,MACRORREGIONAL I,15014,MARAJO II,31.786
1503200,Igarapé-Açu,IGARAPE-ACU,15,Pará,PARA,PA,15010,Bragantina,BRAGANTINA,1504,Nordeste Paraense,NORDESTE PARAENSE,1,Norte,NORTE,N,150004,Castanhal,CASTANHAL,1502,Castanhal,CASTANHAL,-1.1450109225204343,-47.5659980420401,150320,1511,MACRORREGIONAL II,15008,METROPOLITANA III,35.797
1503309,Igarapé-Miri,IGARAPE-MIRI,15,Pará,PARA,PA,15011,Cametá,CAMETA,1504,Nordeste Paraense,NORDESTE PARAENSE,1,Norte,NORTE,N,150003,Abaetetuba,ABAETETUBA,1501,Belém,BELEM,-2.0627071268280925,-49.130740741025434,150330,1512,MACRORREGIONAL I,15011,TOCANTINS,64.831
1503408,Inhangapi,INHANGAPI,15,Pará,PARA,PA,15008,Castanhal,CASTANHAL,1503,Metropolitana de Belém,METROPOLITANA DE BELEM,1,Norte,NORTE,N,150004,Castanhal,CASTANHAL,1502,Castanhal,CASTANHAL,-1.464680229713378,-47.92265659341165,150340,1511,MACRORREGIONAL II,15008,METROPOLITANA III,10.325
1503457,Ipixuna do Pará,IPIXUNA DO PARA,15,Pará,PARA,PA,15013,Guamá,GUAMA,1504,Nordeste Paraense,NORDESTE PARAENSE,1,Norte,NORTE,N,150007,Paragominas,PARAGOMINAS,1502,Castanhal,CASTANHAL,-2.8057753725308414,-47.92153943891705,150345,1511,MACRORREGIONAL II,15008,METROPOLITANA III,30.329
1503507,Irituia,IRITUIA,15,Pará,PARA,PA,15013,Guamá,GUAMA,1504,Nordeste Paraense,NORDESTE PARAENSE,1,Norte,NORTE,N,150004,Castanhal,CASTANHAL,1502,Castanhal,CASTANHAL,-1.8115334063721464,-47.399862399424805,150350,1511,MACRORREGIONAL II,15008,METROPOLITANA III,30.955
1503606,Itaituba,ITAITUBA,15,Pará,PARA,PA,15014,Itaituba,ITAITUBA,1505,Sudoeste Paraense,SUDOESTE PARAENSE,1,Norte,NORTE,N,150016,Itaituba,ITAITUBA,1505,Santarém,SANTAREM,-5.871131748933735,-56.49671826448339,150360,1510,MACRORREGIONAL III,15010,TAPAJOS,123.314
1503705,Itupiranga,ITUPIRANGA,15,Pará,PARA,PA,15016,Tucuruí,TUCURUI,1506,Sudeste Paraense,SUDESTE PARAENSE,1,Norte,NORTE,N,150009,Marabá,MARABA,1503,Marabá,MARABA,-5.1148206202712725,-49.86969557762694,150370,1509,MACRORREGIONAL IV,15003,CARAJAS,49.754
1503754,Jacareacanga,JACAREACANGA,15,Pará,PARA,PA,15014,Itaituba,ITAITUBA,1505,Sudoeste Paraense,SUDOESTE PARAENSE,1,Norte,NORTE,N,150016,Itaituba,ITAITUBA,1505,Santarém,SANTAREM,-7.445282578392031,-57.302708265974694,150375,1510,MACRORREGIONAL III,15010,TAPAJOS,24.042
1503804,Jacundá,JACUNDA,15,Pará,PARA,PA,15016,Tucuruí,TUCURUI,1506,Sudeste Paraense,SUDESTE PARAENSE,1,Norte,NORTE,N,150009,Marabá,MARABA,1503,Marabá,MARABA,-4.598529248131923,-49.18120944395673,150380,1509,MACRORREGIONAL IV,15004,LAGO DE TUCURUI,37.707
1503903,Juruti,JURUTI,15,Pará,PARA,PA,15001,Óbidos,OBIDOS,1501,Baixo Amazonas,BAIXO AMAZONAS,1,Norte,NORTE,N,150017,Oriximiná,ORIXIMINA,1505,Santarém,SANTAREM,-2.6228339522028414,-56.221334745041,150390,1510,MACRORREGIONAL III,15002,BAIXO AMAZONAS,50.881
1504000,Limoeiro do Ajuru,LIMOEIRO DO AJURU,15,Pará,PARA,PA,15011,Cametá,CAMETA,1504,Nordeste Paraense,NORDESTE PARAENSE,1,Norte,NORTE,N,150002,Cametá,CAMETA,1501,Belém,BELEM,-1.864214456293391,-49.46918437171291,150400,1512,MACRORREGIONAL I,15011,TOCANTINS,29.569
1504059,Mãe do Rio,MAE DO RIO,15,Pará,PARA,PA,15013,Guamá,GUAMA,1504,Nordeste Paraense,NORDESTE PARAENSE,1,Norte,NORTE,N,150007,Paragominas,PARAGOMINAS,1502,Castanhal,CASTANHAL,-1.99102748991415,-47.512776708755005,150405,1511,MACRORREGIONAL II,15008,METROPOLITANA III,34.353
1504109,Magalhães Barata,MAGALHAES BARATA,15,Pará,PARA,PA,15009,Salgado,SALGADO,1504,Nordeste Paraense,NORDESTE PARAENSE,1,Norte,NORTE,N,150004,Castanhal,CASTANHAL,1502,Castanhal,CASTANHAL,-0.8098369289227081,-47.63520633035439,150410,1511,MACRORREGIONAL II,15008,METROPOLITANA III,8.115
1504208,Marabá,MARABA,15,Pará,PARA,PA,15020,Marabá,MARABA,1506,Sudeste Paraense,SUDESTE PARAENSE,1,Norte,NORTE,N,150009,Marabá,MARABA,1503,Marabá,MARABA,-5.629805639248844,-50.01697282089801,150420,1509,MACRORREGIONAL IV,15003,CARAJAS,266.533
1504307,Maracanã,MARACANA,15,Pará,PARA,PA,15009,Salgado,SALGADO,1504,Nordeste Paraense,NORDESTE PARAENSE,1,Norte,NORTE,N,150004,Castanhal,CASTANHAL,1502,Castanhal,CASTANHAL,-0.810131497487761,-47.49744079699535,150430,1511,MACRORREGIONAL II,15008,METROPOLITANA III,25.971
1504406,Marapanim,MARAPANIM,15,Pará,PARA,PA,15009,Salgado,SALGADO,1504,Nordeste Paraense,NORDESTE PARAENSE,1,Norte,NORTE,N,150004,Castanhal,CASTANHAL,1502,Castanhal,CASTANHAL,-0.8374303367214936,-47.70981374493809,150440,1511,MACRORREGIONAL II,15008,METROPOLITANA III,26.573
1504422,Marituba,MARITUBA,15,Pará,PARA,PA,15007,Belém,BELEM,1503,Metropolitana de Belém,METROPOLITANA DE BELEM,1,Norte,NORTE,N,150001,Belém,BELEM,1501,Belém,BELEM,-1.3974545847931965,-48.31978393157066,150442,1512,MACRORREGIONAL I,15006,METROPOLITANA I,111.785
1504455,Medicilândia,MEDICILANDIA,15,Pará,PARA,PA,15015,Altamira,ALTAMIRA,1505,Sudoeste Paraense,SUDOESTE PARAENSE,1,Norte,NORTE,N,150018,Altamira,ALTAMIRA,1506,Altamira,ALTAMIRA,-3.160215933025955,-53.19498594601086,150445,1510,MACRORREGIONAL III,15012,XINGU,27.094
1504505,Melgaço,MELGACO,15,Pará,PARA,PA,15004,Portel,PORTEL,1502,Marajó,MARAJO,1,Norte,NORTE,N,150020,Breves,BREVES,1507,Breves,BREVES,-1.6075957958604865,-51.1038850676637,150450,1512,MACRORREGIONAL I,15014,MARAJO II,27.881
1504604,Mocajuba,MOCAJUBA,15,Pará,PARA,PA,15011,Cametá,CAMETA,1504,Nordeste Paraense,NORDESTE PARAENSE,1,Norte,NORTE,N,150002,Cametá,CAMETA,1501,Belém,BELEM,-2.5766878437808356,-49.466361461807615,150460,1512,MACRORREGIONAL I,15011,TOCANTINS,27.198
1504703,Moju,MOJU,15,Pará,PARA,PA,15012,Tomé-Açu,TOME-ACU,1504,Nordeste Paraense,NORDESTE PARAENSE,1,Norte,NORTE,N,150003,Abaetetuba,ABAETETUBA,1501,Belém,BELEM,-2.6839143927656117,-49.07403927294579,150470,1512,MACRORREGIONAL I,15011,TOCANTINS,84.094
1504752,Mojuí dos Campos,MOJUI DOS CAMPOS,15,Pará,PARA,PA,15002,Santarém,SANTAREM,1501,Baixo Amazonas,BAIXO AMAZONAS,1,Norte,NORTE,N,150015,Santarém,SANTAREM,1505,Santarém,SANTAREM,-3.0704239900993886,-54.57515546008022,150475,1510,MACRORREGIONAL III,15002,BAIXO AMAZONAS,23.501
1504802,Monte Alegre,MONTE ALEGRE,15,Pará,PARA,PA,15002,Santarém,SANTAREM,1501,Baixo Amazonas,BAIXO AMAZONAS,1,Norte,NORTE,N,150015,Santarém,SANTAREM,1505,Santarém,SANTAREM,-1.0743241649117858,-54.35306618345238,150480,1510,MACRORREGIONAL III,15002,BAIXO AMAZONAS,60.012
1504901,Muaná,MUANA,15,Pará,PARA,PA,15006,Arari,ARARI,1502,Marajó,MARAJO,1,Norte,NORTE,N,150021,Soure-Salvaterra,SOURE-SALVATERRA,1507,Breves,BREVES,-1.3556785194530192,-49.30924708293846,150490,1512,MACRORREGIONAL I,15013,MARAJO I,45.368
1504950,Nova Esperança do Piriá,NOVA ESPERANCA DO PIRIA,15,Pará,PARA,PA,15013,Guamá,GUAMA,1504,Nordeste Paraense,NORDESTE PARAENSE,1,Norte,NORTE,N,150008,Capitão Poço,CAPITAO POCO,1502,Castanhal,CASTANHAL,-2.3926539323569873,-46.90005513282484,150495,1511,MACRORREGIONAL II,15008,METROPOLITANA III,20.478
1504976,Nova Ipixuna,NOVA IPIXUNA,15,Pará,PARA,PA,15016,Tucuruí,TUCURUI,1506,Sudeste Paraense,SUDESTE PARAENSE,1,Norte,NORTE,N,150009,Marabá,MARABA,1503,Marabá,MARABA,-4.9810752281455954,-49.23076667640764,150497,1509,MACRORREGIONAL IV,15003,CARAJAS,13.955
1505007,Nova Timboteua,NOVA TIMBOTEUA,15,Pará,PARA,PA,15010,Bragantina,BRAGANTINA,1504,Nordeste Paraense,NORDESTE PARAENSE,1,Norte,NORTE,N,150006,Capanema,CAPANEMA,1502,Castanhal,CASTANHAL,-1.1564539719257103,-47.392145111505634,150500,1511,MACRORREGIONAL II,15009,RIO CAETES,12.806
1505031,Novo Progresso,NOVO PROGRESSO,15,Pará,PARA,PA,15014,Itaituba,ITAITUBA,1505,Sudoeste Paraense,SUDOESTE PARAENSE,1,Norte,NORTE,N,150016,Itaituba,ITAITUBA,1505,Santarém,SANTAREM,-8.062276052076864,-55.6120275302821,150503,1510,MACRORREGIONAL III,15010,TAPAJOS,33.638
1505064,Novo Repartimento,NOVO REPARTIMENTO,15,Pará,PARA,PA,15016,Tucuruí,TUCURUI,1506,Sudeste Paraense,SUDESTE PARAENSE,1,Norte,NORTE,N,150011,Tucuruí,TUCURUI,1503,Marabá,MARABA,-4.502840845788938,-50.27161073725673,150506,1509,MACRORREGIONAL IV,15004,LAGO DE TUCURUI,60.732
1505106,Óbidos,OBIDOS,15,Pará,PARA,PA,15001,Óbidos,OBIDOS,1501,Baixo Amazonas,BAIXO AMAZONAS,1,Norte,NORTE,N,150017,Oriximiná,ORIXIMINA,1505,Santarém,SANTAREM,-0.16962042729418506,-55.674862340444356,150510,1510,MACRORREGIONAL III,15002,BAIXO AMAZONAS,52.229
1505205,Oeiras do Pará,OEIRAS DO PARA,15,Pará,PARA,PA,15011,Cametá,CAMETA,1504,Nordeste Paraense,NORDESTE PARAENSE,1,Norte,NORTE,N,150002,Cametá,CAMETA,1501,Belém,BELEM,-2.2789149222910616,-49.902332744104015,150520,1512,MACRORREGIONAL I,15011,TOCANTINS,33.844
1505304,Oriximiná,ORIXIMINA,15,Pará,PARA,PA,15001,Óbidos,OBIDOS,1501,Baixo Amazonas,BAIXO AMAZONAS,1,Norte,NORTE,N,150017,Oriximiná,ORIXIMINA,1505,Santarém,SANTAREM,0.2541566234758276,-57.149865608210206,150530,1510,MACRORREGIONAL III,15002,BAIXO AMAZONAS,68.294
1505403,Ourém,OUREM,15,Pará,PARA,PA,15013,Guamá,GUAMA,1504,Nordeste Paraense,NORDESTE PARAENSE,1,Norte,NORTE,N,150008,Capitão Poço,CAPITAO POCO,1502,Castanhal,CASTANHAL,-1.4959213539609109,-47.13920093067149,150540,1511,MACRORREGIONAL II,15009,RIO CAETES,17.855
1505437,Ourilândia do Norte,OURILANDIA DO NORTE,15,Pará,PARA,PA,15018,São Félix do Xingu,SAO FELIX DO XINGU,1506,Sudeste Paraense,SUDESTE PARAENSE,1,Norte,NORTE,N,150013,Tucumã - São Félix do Xingu,TUCUMA - SAO FELIX DO XINGU,1504,Redenção,REDENCAO,-7.520542959877954,-51.430938601253764,150543,1509,MACRORREGIONAL IV,15001,ARAGUAIA,32.467
1505486,Pacajá,PACAJA,15,Pará,PARA,PA,15015,Altamira,ALTAMIRA,1505,Sudoeste Paraense,SUDOESTE PARAENSE,1,Norte,NORTE,N,150011,Tucuruí,TUCURUI,1503,Marabá,MARABA,-3.6841221562943995,-50.63168375402105,150548,1510,MACRORREGIONAL III,15012,XINGU,41.097
1505494,Palestina do Pará,PALESTINA DO PARA,15,Pará,PARA,PA,15020,Marabá,MARABA,1506,Sudeste Paraense,SUDESTE PARAENSE,1,Norte,NORTE,N,150009,Marabá,MARABA,1503,Marabá,MARABA,-5.9272683593946836,-48.37018919178178,150549,1509,MACRORREGIONAL IV,15003,CARAJAS,6.885
1505502,Paragominas,PARAGOMINAS,15,Pará,PARA,PA,15017,Paragominas,PARAGOMINAS,1506,Sudeste Paraense,SUDESTE PARAENSE,1,Norte,NORTE,N,150007,Paragominas,PARAGOMINAS,1502,Castanhal,CASTANHAL,-3.2034461713313434,-47.60315033749264,150550,1511,MACRORREGIONAL II,15008,METROPOLITANA III,105.550
1505536,Parauapebas,PARAUAPEBAS,15,Pará,PARA,PA,15019,Parauapebas,PARAUAPEBAS,1506,Sudeste Paraense,SUDESTE PARAENSE,1,Norte,NORTE,N,150010,Parauapebas,PARAUAPEBAS,1503,Marabá,MARABA,-6.1517368634264535,-50.48976631148361,150553,1509,MACRORREGIONAL IV,15003,CARAJAS,267.836
1505551,Pau D'Arco,PAU D'ARCO,15,Pará,PARA,PA,15021,Redenção,REDENCAO,1506,Sudeste Paraense,SUDESTE PARAENSE,1,Norte,NORTE,N,150012,Redenção,REDENCAO,1504,Redenção,REDENCAO,-7.73696339950858,-50.123628287662264,150555,1509,MACRORREGIONAL IV,15001,ARAGUAIA,6.931
1505601,Peixe-Boi,PEIXE-BOI,15,Pará,PARA,PA,15010,Bragantina,BRAGANTINA,1504,Nordeste Paraense,NORDESTE PARAENSE,1,Norte,NORTE,N,150006,Capanema,CAPANEMA,1502,Castanhal,CASTANHAL,-1.1307225088420412,-47.27197814607745,150560,1511,MACRORREGIONAL II,15009,RIO CAETES,8.285
1505635,Piçarra,PICARRA,15,Pará,PARA,PA,15021,Redenção,REDENCAO,1506,Sudeste Paraense,SUDESTE PARAENSE,1,Norte,NORTE,N,150009,Marabá,MARABA,1503,Marabá,MARABA,-6.541042353065367,-49.01176998189522,150563,1509,MACRORREGIONAL IV,15003,CARAJAS,12.832
1505650,Placas,PLACAS,15,Pará,PARA,PA,15002,Santarém,SANTAREM,1501,Baixo Amazonas,BAIXO AMAZONAS,1,Norte,NORTE,N,150016,Itaituba,ITAITUBA,1505,Santarém,SANTAREM,-3.8898267076610527,-54.50065692338016,150565,1510,MACRORREGIONAL III,15002,BAIXO AMAZONAS,18.668
1505700,Ponta de Pedras,PONTA DE PEDRAS,15,Pará,PARA,PA,15006,Arari,ARARI,1502,Marajó,MARAJO,1,Norte,NORTE,N,150021,Soure-Salvaterra,SOURE-SALVATERRA,1507,Breves,BREVES,-1.1174990712798145,-49.07729189166291,150570,1512,MACRORREGIONAL I,15013,MARAJO I,24.984
1505809,Portel,PORTEL,15,Pará,PARA,PA,15004,Portel,PORTEL,1502,Marajó,MARAJO,1,Norte,NORTE,N,150020,Breves,BREVES,1507,Breves,BREVES,-2.5653992105323438,-50.9556217818052,150580,1512,MACRORREGIONAL I,15014,MARAJO II,62.503
1505908,Porto de Moz,PORTO DE MOZ,15,Pará,PARA,PA,15003,Almeirim,ALMEIRIM,1501,Baixo Amazonas,BAIXO AMAZONAS,1,Norte,NORTE,N,150019,Almeirim - Porto de Moz,ALMEIRIM - PORTO DE MOZ,1506,Altamira,ALTAMIRA,-2.1846122304333955,-52.54773161153076,150590,1510,MACRORREGIONAL III,15012,XINGU,40.597
1506005,Prainha,PRAINHA,15,Pará,PARA,PA,15002,Santarém,SANTAREM,1501,Baixo Amazonas,BAIXO AMAZONAS,1,Norte,NORTE,N,150015,Santarém,SANTAREM,1505,Santarém,SANTAREM,-2.1202609941870136,-53.66020426484045,150600,1510,MACRORREGIONAL III,15002,BAIXO AMAZONAS,35.577
1506104,Primavera,PRIMAVERA,15,Pará,PARA,PA,15010,Bragantina,BRAGANTINA,1504,Nordeste Paraense,NORDESTE PARAENSE,1,Norte,NORTE,N,150006,Capanema,CAPANEMA,1502,Castanhal,CASTANHAL,-0.9524159221172132,-47.13138129144214,150610,1511,MACRORREGIONAL II,15009,RIO CAETES,10.851
1506112,Quatipuru,QUATIPURU,15,Pará,PARA,PA,15010,Bragantina,BRAGANTINA,1504,Nordeste Paraense,NORDESTE PARAENSE,1,Norte,NORTE,N,150006,Capanema,CAPANEMA,1502,Castanhal,CASTANHAL,-0.8600910210102197,-47.015455430464016,150611,1511,MACRORREGIONAL II,15009,RIO CAETES,11.524
1506138,Redenção,REDENCAO,15,Pará,PARA,PA,15021,Redenção,REDENCAO,1506,Sudeste Paraense,SUDESTE PARAENSE,1,Norte,NORTE,N,150012,Redenção,REDENCAO,1504,Redenção,REDENCAO,-8.069325252573044,-50.198117969621016,150613,1509,MACRORREGIONAL IV,15001,ARAGUAIA,85.597
1506161,Rio Maria,RIO MARIA,15,Pará,PARA,PA,15021,Redenção,REDENCAO,1506,Sudeste Paraense,SUDESTE PARAENSE,1,Norte,NORTE,N,150014,Xinguara,XINGUARA,1504,Redenção,REDENCAO,-7.340628842658941,-49.895141406950515,150616,1509,MACRORREGIONAL IV,15001,ARAGUAIA,18.384
1506187,Rondon do Pará,RONDON DO PARA,15,Pará,PARA,PA,15017,Paragominas,PARAGOMINAS,1506,Sudeste Paraense,SUDESTE PARAENSE,1,Norte,NORTE,N,150009,Marabá,MARABA,1503,Marabá,MARABA,-4.516927762051363,-48.460040732683865,150618,1509,MACRORREGIONAL IV,15003,CARAJAS,53.143
1506195,Rurópolis,RUROPOLIS,15,Pará,PARA,PA,15014,Itaituba,ITAITUBA,1505,Sudoeste Paraense,SUDOESTE PARAENSE,1,Norte,NORTE,N,150016,Itaituba,ITAITUBA,1505,Santarém,SANTAREM,-4.241042576631981,-55.210739519852545,150619,1510,MACRORREGIONAL III,15010,TAPAJOS,35.769
1506203,Salinópolis,SALINOPOLIS,15,Pará,PARA,PA,15009,Salgado,SALGADO,1504,Nordeste Paraense,NORDESTE PARAENSE,1,Norte,NORTE,N,150006,Capanema,CAPANEMA,1502,Castanhal,CASTANHAL,-0.6839707519653941,-47.35169914728825,150620,1511,MACRORREGIONAL II,15009,RIO CAETES,44.772
1506302,Salvaterra,SALVATERRA,15,Pará,PARA,PA,15006,Arari,ARARI,1502,Marajó,MARAJO,1,Norte,NORTE,N,150021,Soure-Salvaterra,SOURE-SALVATERRA,1507,Breves,BREVES,-0.7966080387352422,-48.63002153814572,150630,1512,MACRORREGIONAL I,15013,MARAJO I,24.129
1506351,Santa Bárbara do Pará,SANTA BARBARA DO PARA,15,Pará,PARA,PA,15007,Belém,BELEM,1503,Metropolitana de Belém,METROPOLITANA DE BELEM,1,Norte,NORTE,N,150001,Belém,BELEM,1501,Belém,BELEM,-1.1943424479363682,-48.25051692249692,150635,1512,MACRORREGIONAL I,15006,METROPOLITANA I,21.087
1506401,Santa Cruz do Arari,SANTA CRUZ DO ARARI,15,Pará,PARA,PA,15006,Arari,ARARI,1502,Marajó,MARAJO,1,Norte,NORTE,N,150021,Soure-Salvaterra,SOURE-SALVATERRA,1507,Breves,BREVES,-0.5833523061776714,-49.31385798640957,150640,1512,MACRORREGIONAL I,15013,MARAJO I,7.445
1506500,Santa Izabel do Pará,SANTA IZABEL DO PARA,15,Pará,PARA,PA,15008,Castanhal,CASTANHAL,1503,Metropolitana de Belém,METROPOLITANA DE BELEM,1,Norte,NORTE,N,150001,Belém,BELEM,1501,Belém,BELEM,-1.3652006511068169,-48.1292948729602,150650,1511,MACRORREGIONAL II,15007,METROPOLITANA II,73.019
1506559,Santa Luzia do Pará,SANTA LUZIA DO PARA,15,Pará,PARA,PA,15013,Guamá,GUAMA,1504,Nordeste Paraense,NORDESTE PARAENSE,1,Norte,NORTE,N,150005,Bragança,BRAGANCA,1502,Castanhal,CASTANHAL,-1.6566263463040822,-46.92691902830026,150655,1511,MACRORREGIONAL II,15009,RIO CAETES,20.370
1506583,Santa Maria das Barreiras,SANTA MARIA DAS BARREIRAS,15,Pará,PARA,PA,15022,Conceição do Araguaia,CONCEICAO DO ARAGUAIA,1506,Sudeste Paraense,SUDESTE PARAENSE,1,Norte,NORTE,N,150012,Redenção,REDENCAO,1504,Redenção,REDENCAO,-8.633790099496418,-50.314369241101026,150658,1509,MACRORREGIONAL IV,15001,ARAGUAIA,16.548
1506609,Santa Maria do Pará,SANTA MARIA DO PARA,15,Pará,PARA,PA,15010,Bragantina,BRAGANTINA,1504,Nordeste Paraense,NORDESTE PARAENSE,1,Norte,NORTE,N,150004,Castanhal,CASTANHAL,1502,Castanhal,CASTANHAL,-1.3744819230337177,-47.52163543460061,150660,1511,MACRORREGIONAL II,15008,METROPOLITANA III,24.624
1506708,Santana do Araguaia,SANTANA DO ARAGUAIA,15,Pará,PARA,PA,15022,Conceição do Araguaia,CONCEICAO DO ARAGUAIA,1506,Sudeste Paraense,SUDESTE PARAENSE,1,Norte,NORTE,N,150012,Redenção,REDENCAO,1504,Redenção,REDENCAO,-9.36405783061702,-50.611283946891014,150670,1509,MACRORREGIONAL IV,15001,ARAGUAIA,32.413
1506807,Santarém,SANTAREM,15,Pará,PARA,PA,15002,Santarém,SANTAREM,1501,Baixo Amazonas,BAIXO AMAZONAS,1,Norte,NORTE,N,150015,Santarém,SANTAREM,1505,Santarém,SANTAREM,-2.679315280125223,-55.23844209593678,150680,1510,MACRORREGIONAL III,15002,BAIXO AMAZONAS,331.942
1506906,Santarém Novo,SANTAREM NOVO,15,Pará,PARA,PA,15010,Bragantina,BRAGANTINA,1504,Nordeste Paraense,NORDESTE PARAENSE,1,Norte,NORTE,N,150006,Capanema,CAPANEMA,1502,Castanhal,CASTANHAL,-0.9133572367459198,-47.33294232894458,150690,1511,MACRORREGIONAL II,15009,RIO CAETES,6.116
1507003,Santo Antônio do Tauá,SANTO ANTONIO DO TAUA,15,Pará,PARA,PA,15008,Castanhal,CASTANHAL,1503,Metropolitana de Belém,METROPOLITANA DE BELEM,1,Norte,NORTE,N,150001,Belém,BELEM,1501,Belém,BELEM,-1.0932467268458996,-48.18276032418605,150700,1511,MACRORREGIONAL II,15007,METROPOLITANA II,27.461
1507102,São Caetano de Odivelas,SAO CAETANO DE ODIVELAS,15,Pará,PARA,PA,15009,Salgado,SALGADO,1504,Nordeste Paraense,NORDESTE PARAENSE,1,Norte,NORTE,N,150001,Belém,BELEM,1501,Belém,BELEM,-0.864931425027973,-48.02573030772702,150710,1511,MACRORREGIONAL II,15007,METROPOLITANA II,16.666
1507151,São Domingos do Araguaia,SAO DOMINGOS DO ARAGUAIA,15,Pará,PARA,PA,15020,Marabá,MARABA,1506,Sudeste Paraense,SUDESTE PARAENSE,1,Norte,NORTE,N,150009,Marabá,MARABA,1503,Marabá,MARABA,-5.657593860436407,-48.73058961521731,150715,1509,MACRORREGIONAL IV,15003,CARAJAS,21.092
1507201,São Domingos do Capim,SAO DOMINGOS DO CAPIM,15,Pará,PARA,PA,15013,Guamá,GUAMA,1504,Nordeste Paraense,NORDESTE PARAENSE,1,Norte,NORTE,N,150004,Castanhal,CASTANHAL,1502,Castanhal,CASTANHAL,-1.882570174046978,-47.771482090587256,150720,1511,MACRORREGIONAL II,15008,METROPOLITANA III,30.599
1507300,São Félix do Xingu,SAO FELIX DO XINGU,15,Pará,PARA,PA,15018,São Félix do Xingu,SAO FELIX DO XINGU,1506,Sudeste Paraense,SUDESTE PARAENSE,1,Norte,NORTE,N,150013,Tucumã - São Félix do Xingu,TUCUMA - SAO FELIX DO XINGU,1504,Redenção,REDENCAO,-7.233373457748313,-52.25269607762133,150730,1509,MACRORREGIONAL IV,15001,ARAGUAIA,65.418
1507409,São Francisco do Pará,SAO FRANCISCO DO PARA,15,Pará,PARA,PA,15010,Bragantina,BRAGANTINA,1504,Nordeste Paraense,NORDESTE PARAENSE,1,Norte,NORTE,N,150004,Castanhal,CASTANHAL,1502,Castanhal,CASTANHAL,-1.2060224932223802,-47.74684488220929,150740,1511,MACRORREGIONAL II,15008,METROPOLITANA III,14.894
1507458,São Geraldo do Araguaia,SAO GERALDO DO ARAGUAIA,15,Pará,PARA,PA,15021,Redenção,REDENCAO,1506,Sudeste Paraense,SUDESTE PARAENSE,1,Norte,NORTE,N,150009,Marabá,MARABA,1503,Marabá,MARABA,-6.189245021641436,-48.748227982111445,150745,1509,MACRORREGIONAL IV,15003,CARAJAS,24.255
1507466,São João da Ponta,SAO JOAO DA PONTA,15,Pará,PARA,PA,15009,Salgado,SALGADO,1504,Nordeste Paraense,NORDESTE PARAENSE,1,Norte,NORTE,N,150004,Castanhal,CASTANHAL,1502,Castanhal,CASTANHAL,-0.8704812755443379,-47.96446594248994,150746,1511,MACRORREGIONAL II,15008,METROPOLITANA III,4.430
1507474,São João de Pirabas,SAO JOAO DE PIRABAS,15,Pará,PARA,PA,15009,Salgado,SALGADO,1504,Nordeste Paraense,NORDESTE PARAENSE,1,Norte,NORTE,N,150006,Capanema,CAPANEMA,1502,Castanhal,CASTANHAL,-0.783762703814179,-47.21792758045507,150747,1511,MACRORREGIONAL II,15009,RIO CAETES,20.689
1507508,São João do Araguaia,SAO JOAO DO ARAGUAIA,15,Pará,PARA,PA,15020,Marabá,MARABA,1506,Sudeste Paraense,SUDESTE PARAENSE,1,Norte,NORTE,N,150009,Marabá,MARABA,1503,Marabá,MARABA,-5.44731948991492,-48.696790310628835,150750,1509,MACRORREGIONAL IV,15003,CARAJAS,13.664
1507607,São Miguel do Guamá,SAO MIGUEL DO GUAMA,15,Pará,PARA,PA,15013,Guamá,GUAMA,1504,Nordeste Paraense,NORDESTE PARAENSE,1,Norte,NORTE,N,150004,Castanhal,CASTANHAL,1502,Castanhal,CASTANHAL,-1.551530603600656,-47.61078152302399,150760,1511,MACRORREGIONAL II,15008,METROPOLITANA III,52.894
1507706,São Sebastião da Boa Vista,SAO SEBASTIAO DA BOA VISTA,15,Pará,PARA,PA,15005,Furos de Breves,FUROS DE BREVES,1502,Marajó,MARAJO,1,Norte,NORTE,N,150020,Breves,BREVES,1507,Breves,BREVES,-1.4341335593222304,-49.68027144140213,150770,1512,MACRORREGIONAL I,15013,MARAJO I,25.643
1507755,Sapucaia,SAPUCAIA,15,Pará,PARA,PA,15021,Redenção,REDENCAO,1506,Sudeste Paraense,SUDESTE PARAENSE,1,Norte,NORTE,N,150014,Xinguara,XINGUARA,1504,Redenção,REDENCAO,-6.838891443448096,-49.56975956316465,150775,1509,MACRORREGIONAL IV,15001,ARAGUAIA,5.847
1507805,Senador José Porfírio,SENADOR JOSE PORFIRIO,15,Pará,PARA,PA,15015,Altamira,ALTAMIRA,1505,Sudoeste Paraense,SUDOESTE PARAENSE,1,Norte,NORTE,N,150018,Altamira,ALTAMIRA,1506,Altamira,ALTAMIRA,-4.16972396984138,-51.77384648008517,150780,1510,MACRORREGIONAL III,15012,XINGU,22.576
1507904,Soure,SOURE,15,Pará,PARA,PA,15006,Arari,ARARI,1502,Marajó,MARAJO,1,Norte,NORTE,N,150021,Soure-Salvaterra,SOURE-SALVATERRA,1507,Breves,BREVES,-0.4479128281099484,-48.69775316669051,150790,1512,MACRORREGIONAL I,15013,MARAJO I,24.204
1507953,Tailândia,TAILANDIA,15,Pará,PARA,PA,15012,Tomé-Açu,TOME-ACU,1504,Nordeste Paraense,NORDESTE PARAENSE,1,Norte,NORTE,N,150003,Abaetetuba,ABAETETUBA,1501,Belém,BELEM,-2.907819622993928,-48.736700174459834,150795,1512,MACRORREGIONAL I,15011,TOCANTINS,72.493
1507961,Terra Alta,TERRA ALTA,15,Pará,PARA,PA,15009,Salgado,SALGADO,1504,Nordeste Paraense,NORDESTE PARAENSE,1,Norte,NORTE,N,150004,Castanhal,CASTANHAL,1502,Castanhal,CASTANHAL,-1.0025998170780248,-47.84831023367489,150796,1511,MACRORREGIONAL II,15008,METROPOLITANA III,10.400
1507979,Terra Santa,TERRA SANTA,15,Pará,PARA,PA,15001,Óbidos,OBIDOS,1501,Baixo Amazonas,BAIXO AMAZONAS,1,Norte,NORTE,N,150017,Oriximiná,ORIXIMINA,1505,Santarém,SANTAREM,-1.9514975009903663,-56.458433420374924,150797,1510,MACRORREGIONAL III,15002,BAIXO AMAZONAS,18.782
1508001,Tomé-Açu,TOME-ACU,15,Pará,PARA,PA,15012,Tomé-Açu,TOME-ACU,1504,Nordeste Paraense,NORDESTE PARAENSE,1,Norte,NORTE,N,150001,Belém,BELEM,1501,Belém,BELEM,-2.6361292290453697,-48.26762694316004,150800,1511,MACRORREGIONAL II,15007,METROPOLITANA II,67.585
1508035,Tracuateua,TRACUATEUA,15,Pará,PARA,PA,15010,Bragantina,BRAGANTINA,1504,Nordeste Paraense,NORDESTE PARAENSE,1,Norte,NORTE,N,150005,Bragança,BRAGANCA,1502,Castanhal,CASTANHAL,-1.0409732733153363,-46.93898867055126,150803,1511,MACRORREGIONAL II,15009,RIO CAETES,28.595
1508050,Trairão,TRAIRAO,15,Pará,PARA,PA,15014,Itaituba,ITAITUBA,1505,Sudoeste Paraense,SUDOESTE PARAENSE,1,Norte,NORTE,N,150016,Itaituba,ITAITUBA,1505,Santarém,SANTAREM,-5.1302277014729105,-56.00346454557187,150805,1510,MACRORREGIONAL III,15010,TAPAJOS,15.242
1508084,Tucumã,TUCUMA,15,Pará,PARA,PA,15018,São Félix do Xingu,SAO FELIX DO XINGU,1506,Sudeste Paraense,SUDESTE PARAENSE,1,Norte,NORTE,N,150013,Tucumã - São Félix do Xingu,TUCUMA - SAO FELIX DO XINGU,1504,Redenção,REDENCAO,-6.820195322123169,-51.39139005934696,150808,1509,MACRORREGIONAL IV,15001,ARAGUAIA,39.550
1508100,Tucuruí,TUCURUI,15,Pará,PARA,PA,15016,Tucuruí,TUCURUI,1506,Sudeste Paraense,SUDESTE PARAENSE,1,Norte,NORTE,N,150011,Tucuruí,TUCURUI,1503,Marabá,MARABA,-3.8562782463242047,-49.821131618334284,150810,1509,MACRORREGIONAL IV,15004,LAGO DE TUCURUI,91.306
1508126,Ulianópolis,ULIANOPOLIS,15,Pará,PARA,PA,15017,Paragominas,PARAGOMINAS,1506,Sudeste Paraense,SUDESTE PARAENSE,1,Norte,NORTE,N,150007,Paragominas,PARAGOMINAS,1502,Castanhal,CASTANHAL,-3.809840836890609,-47.493609265479634,150812,1511,MACRORREGIONAL II,15008,METROPOLITANA III,37.972
1508159,Uruará,URUARA,15,Pará,PARA,PA,15015,Altamira,ALTAMIRA,1505,Sudoeste Paraense,SUDOESTE PARAENSE,1,Norte,NORTE,N,150018,Altamira,ALTAMIRA,1506,Altamira,ALTAMIRA,-3.583610963959957,-53.80733455918228,150815,1510,MACRORREGIONAL III,15012,XINGU,43.558
1508209,Vigia,VIGIA,15,Pará,PARA,PA,15009,Salgado,SALGADO,1504,Nordeste Paraense,NORDESTE PARAENSE,1,Norte,NORTE,N,150001,Belém,BELEM,1501,Belém,BELEM,-0.9333991846950873,-48.10493304298298,150820,1511,MACRORREGIONAL II,15007,METROPOLITANA II,50.832
1508308,Viseu,VISEU,15,Pará,PARA,PA,15013,Guamá,GUAMA,1504,Nordeste Paraense,NORDESTE PARAENSE,1,Norte,NORTE,N,150005,Bragança,BRAGANCA,1502,Castanhal,CASTANHAL,-1.523176457439724,-46.453043950624185,150830,1511,MACRORREGIONAL II,15009,RIO CAETES,58.692
1508357,Vitória do Xingu,VITORIA DO XINGU,15,Pará,PARA,PA,15015,Altamira,ALTAMIRA,1505,Sudoeste Paraense,SUDOESTE PARAENSE,1,Norte,NORTE,N,150018,Altamira,ALTAMIRA,1506,Altamira,ALTAMIRA,-3.135265276054167,-51.973964857891325,150835,1510,MACRORREGIONAL III,15012,XINGU,15.607
1508407,Xinguara,XINGUARA,15,Pará,PARA,PA,15021,Redenção,REDENCAO,1506,Sudeste Paraense,SUDESTE PARAENSE,1,Norte,NORTE,N,150014,Xinguara,XINGUARA,1504,Redenção,REDENCAO,-6.917772706038149,-49.635262157514056,150840,1509,MACRORREGIONAL IV,15001,ARAGUAIA,52.893
1600055,Serra do Navio,SERRA DO NAVIO,16,Amapá,AMAPA,AP,16003,Macapá,MACAPA,1602,Sul do Amapá,SUL DO AMAPA,1,Norte,NORTE,N,160004,Porto Grande,PORTO GRANDE,1602,Oiapoque - Porto Grande,OIAPOQUE - PORTO GRANDE,1.6517461200602799,-52.26813660300192,160005,1601,MACRO UNICA - AP,16001,AREA CENTRAL,4.673
1600105,Amapá,AMAPA,16,Amapá,AMAPA,AP,16002,Amapá,AMAPA,1601,Norte do Amapá,NORTE DO AMAPA,1,Norte,NORTE,N,160003,Oiapoque,OIAPOQUE,1602,Oiapoque - Porto Grande,OIAPOQUE - PORTO GRANDE,1.7467596650917,-50.59259297712834,160010,1601,MACRO UNICA - AP,16002,AREA NORTE,7.943
1600154,Pedra Branca do Amapari,PEDRA BRANCA DO AMAPARI,16,Amapá,AMAPA,AP,16003,Macapá,MACAPA,1602,Sul do Amapá,SUL DO AMAPA,1,Norte,NORTE,N,160004,Porto Grande,PORTO GRANDE,1602,Oiapoque - Porto Grande,OIAPOQUE - PORTO GRANDE,1.1576021123985893,-52.519555158991764,160015,1601,MACRO UNICA - AP,16001,AREA CENTRAL,12.847
1600204,Calçoene,CALCOENE,16,Amapá,AMAPA,AP,16001,Oiapoque,OIAPOQUE,1601,Norte do Amapá,NORTE DO AMAPA,1,Norte,NORTE,N,160003,Oiapoque,OIAPOQUE,1602,Oiapoque - Porto Grande,OIAPOQUE - PORTO GRANDE,2.423837585779471,-51.40664716001377,160020,1601,MACRO UNICA - AP,16002,AREA NORTE,10.612
1600212,Cutias,CUTIAS,16,Amapá,AMAPA,AP,16003,Macapá,MACAPA,1602,Sul do Amapá,SUL DO AMAPA,1,Norte,NORTE,N,160003,Oiapoque,OIAPOQUE,1602,Oiapoque - Porto Grande,OIAPOQUE - PORTO GRANDE,1.0355785596868399,-50.48707375336273,160021,1601,MACRO UNICA - AP,16001,AREA CENTRAL,4.461
1600238,Ferreira Gomes,FERREIRA GOMES,16,Amapá,AMAPA,AP,16003,Macapá,MACAPA,1602,Sul do Amapá,SUL DO AMAPA,1,Norte,NORTE,N,160004,Porto Grande,PORTO GRANDE,1602,Oiapoque - Porto Grande,OIAPOQUE - PORTO GRANDE,0.957087354315161,-51.41733644762841,160023,1601,MACRO UNICA - AP,16001,AREA CENTRAL,6.666
1600253,Itaubal,ITAUBAL,16,Amapá,AMAPA,AP,16003,Macapá,MACAPA,1602,Sul do Amapá,SUL DO AMAPA,1,Norte,NORTE,N,160001,Macapá,MACAPA,1601,Macapá,MACAPA,0.5383893807668783,-50.6402620149103,160025,1601,MACRO UNICA - AP,16001,AREA CENTRAL,5.599
1600279,Laranjal do Jari,LARANJAL DO JARI,16,Amapá,AMAPA,AP,16004,Mazagão,MAZAGAO,1602,Sul do Amapá,SUL DO AMAPA,1,Norte,NORTE,N,160002,Laranjal do Jari,LARANJAL DO JARI,1601,Macapá,MACAPA,1.0926524245392377,-53.30393372318664,160027,1601,MACRO UNICA - AP,16003,AREA SUDOESTE,35.114
1600303,Macapá,MACAPA,16,Amapá,AMAPA,AP,16003,Macapá,MACAPA,1602,Sul do Amapá,SUL DO AMAPA,1,Norte,NORTE,N,160001,Macapá,MACAPA,1601,Macapá,MACAPA,0.5627565176095791,-50.69177836010509,160030,1601,MACRO UNICA - AP,16001,AREA CENTRAL,442.933
1600402,Mazagão,MAZAGAO,16,Amapá,AMAPA,AP,16004,Mazagão,MAZAGAO,1602,Sul do Amapá,SUL DO AMAPA,1,Norte,NORTE,N,160001,Macapá,MACAPA,1601,Macapá,MACAPA,-0.06683323372799971,-51.95119920598678,160040,1601,MACRO UNICA - AP,16003,AREA SUDOESTE,21.924
1600501,Oiapoque,OIAPOQUE,16,Amapá,AMAPA,AP,16001,Oiapoque,OIAPOQUE,1601,Norte do Amapá,NORTE DO AMAPA,1,Norte,NORTE,N,160003,Oiapoque,OIAPOQUE,1602,Oiapoque - Porto Grande,OIAPOQUE - PORTO GRANDE,3.1105941320463786,-51.90005677824643,160050,1601,MACRO UNICA - AP,16002,AREA NORTE,27.482
1600535,Porto Grande,PORTO GRANDE,16,Amapá,AMAPA,AP,16003,Macapá,MACAPA,1602,Sul do Amapá,SUL DO AMAPA,1,Norte,NORTE,N,160004,Porto Grande,PORTO GRANDE,1602,Oiapoque - Porto Grande,OIAPOQUE - PORTO GRANDE,0.5856261684938892,-51.669967163874084,160053,1601,MACRO UNICA - AP,16001,AREA CENTRAL,17.848
1600550,Pracuúba,PRACUUBA,16,Amapá,AMAPA,AP,16002,Amapá,AMAPA,1601,Norte do Amapá,NORTE DO AMAPA,1,Norte,NORTE,N,160003,Oiapoque,OIAPOQUE,1602,Oiapoque - Porto Grande,OIAPOQUE - PORTO GRANDE,1.6258031054619029,-51.278550193910576,160055,1601,MACRO UNICA - AP,16002,AREA NORTE,3.803
1600600,Santana,SANTANA,16,Amapá,AMAPA,AP,16003,Macapá,MACAPA,1602,Sul do Amapá,SUL DO AMAPA,1,Norte,NORTE,N,160001,Macapá,MACAPA,1601,Macapá,MACAPA,0.12980016101359626,-51.37835703536331,160060,1601,MACRO UNICA - AP,16003,AREA SUDOESTE,107.618
1600709,Tartarugalzinho,TARTARUGALZINHO,16,Amapá,AMAPA,AP,16002,Amapá,AMAPA,1601,Norte do Amapá,NORTE DO AMAPA,1,Norte,NORTE,N,160003,Oiapoque,OIAPOQUE,1602,Oiapoque - Porto Grande,OIAPOQUE - PORTO GRANDE,1.29757117597655,-50.99261043506562,160070,1601,MACRO UNICA - AP,16002,AREA NORTE,12.945
1600808,Vitória do Jari,VITORIA DO JARI,16,Amapá,AMAPA,AP,16004,Mazagão,MAZAGAO,1602,Sul do Amapá,SUL DO AMAPA,1,Norte,NORTE,N,160002,Laranjal do Jari,LARANJAL DO JARI,1601,Macapá,MACAPA,-0.9964444586639872,-52.06117933012719,160080,1601,MACRO UNICA - AP,16003,AREA SUDOESTE,11.291
1700251,Abreulândia,ABREULANDIA,17,Tocantins,TOCANTINS,TO,17003,Miracema do Tocantins,MIRACEMA DO TOCANTINS,1701,Ocidental do Tocantins,OCIDENTAL DO TOCANTINS,1,Norte,NORTE,N,170003,Paraíso do Tocantins,PARAISO DO TOCANTINS,1701,Palmas,PALMAS,-9.478808551008388,-49.31127223731377,170025,1702,MACRORREGIAO CENTRO-SUL,17007,CANTAO,2.576
1700301,Aguiarnópolis,AGUIARNOPOLIS,17,Tocantins,TOCANTINS,TO,17001,Bico do Papagaio,BICO DO PAPAGAIO,1701,Ocidental do Tocantins,OCIDENTAL DO TOCANTINS,1,Norte,NORTE,N,170008,Tocantinópolis,TOCANTINOPOLIS,1702,Araguaína,ARAGUAINA,-6.488584905565085,-47.51335141810226,170030,1701,MACRORREGIAO DE SAUDE NORTE,17002,BICO DO PAPAGAIO,4.497
1700350,Aliança do Tocantins,ALIANCA DO TOCANTINS,17,Tocantins,TOCANTINS,TO,17005,Gurupi,GURUPI,1701,Ocidental do Tocantins,OCIDENTAL DO TOCANTINS,1,Norte,NORTE,N,170010,Gurupi,GURUPI,1703,Gurupi,GURUPI,-11.331181971105728,-48.90826797498784,170035,1702,MACRORREGIAO CENTRO-SUL,17005,ILHA DO BANANAL,5.147
1700400,Almas,ALMAS,17,Tocantins,TOCANTINS,TO,17008,Dianópolis,DIANOPOLIS,1702,Oriental do Tocantins,ORIENTAL DO TOCANTINS,1,Norte,NORTE,N,170011,Dianópolis,DIANOPOLIS,1703,Gurupi,GURUPI,-11.429495624887775,-47.21101693642714,170040,1702,MACRORREGIAO CENTRO-SUL,17003,SUDESTE,6.499
1700707,Alvorada,ALVORADA,17,Tocantins,TOCANTINS,TO,17005,Gurupi,GURUPI,1701,Ocidental do Tocantins,OCIDENTAL DO TOCANTINS,1,Norte,NORTE,N,170010,Gurupi,GURUPI,1703,Gurupi,GURUPI,-12.407503388887301,-49.11181318232195,170070,1702,MACRORREGIAO CENTRO-SUL,17005,ILHA DO BANANAL,8.802
1701002,Ananás,ANANAS,17,Tocantins,TOCANTINS,TO,17001,Bico do Papagaio,BICO DO PAPAGAIO,1701,Ocidental do Tocantins,OCIDENTAL DO TOCANTINS,1,Norte,NORTE,N,170005,Araguaína,ARAGUAINA,1702,Araguaína,ARAGUAINA,-6.2326632878839465,-48.18664009722967,170100,1701,MACRORREGIAO DE SAUDE NORTE,17002,BICO DO PAPAGAIO,10.325
1701051,Angico,ANGICO,17,Tocantins,TOCANTINS,TO,17001,Bico do Papagaio,BICO DO PAPAGAIO,1701,Ocidental do Tocantins,OCIDENTAL DO TOCANTINS,1,Norte,NORTE,N,170005,Araguaína,ARAGUAINA,1702,Araguaína,ARAGUAINA,-6.435792443337483,-47.91316877677022,170105,1701,MACRORREGIAO DE SAUDE NORTE,17002,BICO DO PAPAGAIO,2.876
1701101,Aparecida do Rio Negro,APARECIDA DO RIO NEGRO,17,Tocantins,TOCANTINS,TO,17006,Porto Nacional,PORTO NACIONAL,1702,Oriental do Tocantins,ORIENTAL DO TOCANTINS,1,Norte,NORTE,N,170001,Palmas,PALMAS,1701,Palmas,PALMAS,-9.986589811324428,-48.00004687851953,170110,1702,MACRORREGIAO CENTRO-SUL,17006,CAPIM DOURADO,4.856
1701309,Aragominas,ARAGOMINAS,17,Tocantins,TOCANTINS,TO,17002,Araguaína,ARAGUAINA,1701,Ocidental do Tocantins,OCIDENTAL DO TOCANTINS,1,Norte,NORTE,N,170005,Araguaína,ARAGUAINA,1702,Araguaína,ARAGUAINA,-6.945515130229822,-48.632324925020164,170130,1701,MACRORREGIAO DE SAUDE NORTE,17001,MEDIO NORTE ARAGUAIA,5.290
1701903,Araguacema,ARAGUACEMA,17,Tocantins,TOCANTINS,TO,17003,Miracema do Tocantins,MIRACEMA DO TOCANTINS,1701,Ocidental do Tocantins,OCIDENTAL DO TOCANTINS,1,Norte,NORTE,N,170003,Paraíso do Tocantins,PARAISO DO TOCANTINS,1701,Palmas,PALMAS,-8.939091468302742,-49.50554405954457,170190,1702,MACRORREGIAO CENTRO-SUL,17007,CANTAO,5.927
1702000,Araguaçu,ARAGUACU,17,Tocantins,TOCANTINS,TO,17004,Rio Formoso,RIO FORMOSO,1701,Ocidental do Tocantins,OCIDENTAL DO TOCANTINS,1,Norte,NORTE,N,170010,Gurupi,GURUPI,1703,Gurupi,GURUPI,-12.839858226206507,-49.69635077794399,170200,1702,MACRORREGIAO CENTRO-SUL,17005,ILHA DO BANANAL,8.133
1702109,Araguaína,ARAGUAINA,17,Tocantins,TOCANTINS,TO,17002,Araguaína,ARAGUAINA,1701,Ocidental do Tocantins,OCIDENTAL DO TOCANTINS,1,Norte,NORTE,N,170005,Araguaína,ARAGUAINA,1702,Araguaína,ARAGUAINA,-7.331299317752827,-48.58780020880463,170210,1701,MACRORREGIAO DE SAUDE NORTE,17001,MEDIO NORTE ARAGUAIA,171.301
1702158,Araguanã,ARAGUANA,17,Tocantins,TOCANTINS,TO,17002,Araguaína,ARAGUAINA,1701,Ocidental do Tocantins,OCIDENTAL DO TOCANTINS,1,Norte,NORTE,N,170005,Araguaína,ARAGUAINA,1702,Araguaína,ARAGUAINA,-6.79096847873291,-48.524542550663355,170215,1701,MACRORREGIAO DE SAUDE NORTE,17001,MEDIO NORTE ARAGUAIA,4.310
1702208,Araguatins,ARAGUATINS,17,Tocantins,TOCANTINS,TO,17001,Bico do Papagaio,BICO DO PAPAGAIO,1701,Ocidental do Tocantins,OCIDENTAL DO TOCANTINS,1,Norte,NORTE,N,170009,Araguatins,ARAGUATINS,1702,Araguaína,ARAGUAINA,-5.665848915875433,-48.10481189987754,170220,1701,MACRORREGIAO DE SAUDE NORTE,17002,BICO DO PAPAGAIO,31.918
1702307,Arapoema,ARAPOEMA,17,Tocantins,TOCANTINS,TO,17002,Araguaína,ARAGUAINA,1701,Ocidental do Tocantins,OCIDENTAL DO TOCANTINS,1,Norte,NORTE,N,170005,Araguaína,ARAGUAINA,1702,Araguaína,ARAGUAINA,-7.723408267763583,-48.999809398704464,170230,1701,MACRORREGIAO DE SAUDE NORTE,17004,CERRADO TOCANTINS ARAGUAIA,5.550
1702406,Arraias,ARRAIAS,17,Tocantins,TOCANTINS,TO,17008,Dianópolis,DIANOPOLIS,1702,Oriental do Tocantins,ORIENTAL DO TOCANTINS,1,Norte,NORTE,N,170011,Dianópolis,DIANOPOLIS,1703,Gurupi,GURUPI,-12.817194150551426,-47.04777711009535,170240,1702,MACRORREGIAO CENTRO-SUL,17003,SUDESTE,10.287
1702554,Augustinópolis,AUGUSTINOPOLIS,17,Tocantins,TOCANTINS,TO,17001,Bico do Papagaio,BICO DO PAPAGAIO,1701,Ocidental do Tocantins,OCIDENTAL DO TOCANTINS,1,Norte,NORTE,N,170009,Araguatins,ARAGUATINS,1702,Araguaína,ARAGUAINA,-5.497804494860894,-47.92815222395883,170255,1701,MACRORREGIAO DE SAUDE NORTE,17002,BICO DO PAPAGAIO,17.484
1702703,Aurora do Tocantins,AURORA DO TOCANTINS,17,Tocantins,TOCANTINS,TO,17008,Dianópolis,DIANOPOLIS,1702,Oriental do Tocantins,ORIENTAL DO TOCANTINS,1,Norte,NORTE,N,170011,Dianópolis,DIANOPOLIS,1703,Gurupi,GURUPI,-12.646630573392924,-46.43284406014438,170270,1702,MACRORREGIAO CENTRO-SUL,17003,SUDESTE,3.342
1702901,Axixá do Tocantins,AXIXA DO TOCANTINS,17,Tocantins,TOCANTINS,TO,17001,Bico do Papagaio,BICO DO PAPAGAIO,1701,Ocidental do Tocantins,OCIDENTAL DO TOCANTINS,1,Norte,NORTE,N,170009,Araguatins,ARAGUATINS,1702,Araguaína,ARAGUAINA,-5.649396042644313,-47.7661072980994,170290,1701,MACRORREGIAO DE SAUDE NORTE,17002,BICO DO PAPAGAIO,10.262
1703008,Babaçulândia,BABACULANDIA,17,Tocantins,TOCANTINS,TO,17002,Araguaína,ARAGUAINA,1701,Ocidental do Tocantins,OCIDENTAL DO TOCANTINS,1,Norte,NORTE,N,170005,Araguaína,ARAGUAINA,1702,Araguaína,ARAGUAINA,-7.174539377694967,-47.8568415568937,170300,1701,MACRORREGIAO DE SAUDE NORTE,17001,MEDIO NORTE ARAGUAIA,7.880
1703057,Bandeirantes do Tocantins,BANDEIRANTES DO TOCANTINS,17,Tocantins,TOCANTINS,TO,17002,Araguaína,ARAGUAINA,1701,Ocidental do Tocantins,OCIDENTAL DO TOCANTINS,1,Norte,NORTE,N,170007,Colinas do Tocantins,COLINAS DO TOCANTINS,1702,Araguaína,ARAGUAINA,-7.903020474002416,-48.67553616566198,170305,1701,MACRORREGIAO DE SAUDE NORTE,17004,CERRADO TOCANTINS ARAGUAIA,3.407
1703073,Barra do Ouro,BARRA DO OURO,17,Tocantins,TOCANTINS,TO,17007,Jalapão,JALAPAO,1702,Oriental do Tocantins,ORIENTAL DO TOCANTINS,1,Norte,NORTE,N,170005,Araguaína,ARAGUAINA,1702,Araguaína,ARAGUAINA,-7.717776695090523,-47.57861369196267,170307,1701,MACRORREGIAO DE SAUDE NORTE,17001,MEDIO NORTE ARAGUAIA,4.476
1703107,Barrolândia,BARROLANDIA,17,Tocantins,TOCANTINS,TO,17003,Miracema do Tocantins,MIRACEMA DO TOCANTINS,1701,Ocidental do Tocantins,OCIDENTAL DO TOCANTINS,1,Norte,NORTE,N,170003,Paraíso do Tocantins,PARAISO DO TOCANTINS,1701,Palmas,PALMAS,-9.86577418678816,-48.791192020641105,170310,1702,MACRORREGIAO CENTRO-SUL,17007,CANTAO,4.846
1703206,Bernardo Sayão,BERNARDO SAYAO,17,Tocantins,TOCANTINS,TO,17003,Miracema do Tocantins,MIRACEMA DO TOCANTINS,1701,Ocidental do Tocantins,OCIDENTAL DO TOCANTINS,1,Norte,NORTE,N,170007,Colinas do Tocantins,COLINAS DO TOCANTINS,1702,Araguaína,ARAGUAINA,-7.9834576919567475,-48.96910083813205,170320,1701,MACRORREGIAO DE SAUDE NORTE,17004,CERRADO TOCANTINS ARAGUAIA,4.229
1703305,Bom Jesus do Tocantins,BOM JESUS DO TOCANTINS,17,Tocantins,TOCANTINS,TO,17006,Porto Nacional,PORTO NACIONAL,1702,Oriental do Tocantins,ORIENTAL DO TOCANTINS,1,Norte,NORTE,N,170006,Guaraí,GUARAI,1702,Araguaína,ARAGUAINA,-9.012397760085342,-47.87922973044739,170330,1701,MACRORREGIAO DE SAUDE NORTE,17004,CERRADO TOCANTINS ARAGUAIA,4.038
1703602,Brasilândia do Tocantins,BRASILANDIA DO TOCANTINS,17,Tocantins,TOCANTINS,TO,17003,Miracema do Tocantins,MIRACEMA DO TOCANTINS,1701,Ocidental do Tocantins,OCIDENTAL DO TOCANTINS,1,Norte,NORTE,N,170007,Colinas do Tocantins,COLINAS DO TOCANTINS,1702,Araguaína,ARAGUAINA,-8.289908450971751,-48.44279899704417,170360,1701,MACRORREGIAO DE SAUDE NORTE,17004,CERRADO TOCANTINS ARAGUAIA,1.974
1703701,Brejinho de Nazaré,BREJINHO DE NAZARE,17,Tocantins,TOCANTINS,TO,17005,Gurupi,GURUPI,1701,Ocidental do Tocantins,OCIDENTAL DO TOCANTINS,1,Norte,NORTE,N,170002,Porto Nacional,PORTO NACIONAL,1701,Palmas,PALMAS,-11.02927061459965,-48.624115815847745,170370,1702,MACRORREGIAO CENTRO-SUL,17008,AMOR PERFEITO,4.725
1703800,Buriti do Tocantins,BURITI DO TOCANTINS,17,Tocantins,TOCANTINS,TO,17001,Bico do Papagaio,BICO DO PAPAGAIO,1701,Ocidental do Tocantins,OCIDENTAL DO TOCANTINS,1,Norte,NORTE,N,170009,Araguatins,ARAGUATINS,1702,Araguaína,ARAGUAINA,-5.33767312396621,-48.13630724575307,170380,1701,MACRORREGIAO DE SAUDE NORTE,17002,BICO DO PAPAGAIO,10.307
1703826,Cachoeirinha,CACHOEIRINHA,17,Tocantins,TOCANTINS,TO,17001,Bico do Papagaio,BICO DO PAPAGAIO,1701,Ocidental do Tocantins,OCIDENTAL DO TOCANTINS,1,Norte,NORTE,N,170008,Tocantinópolis,TOCANTINOPOLIS,1702,Araguaína,ARAGUAINA,-6.090010289309641,-47.84132655858389,170382,1701,MACRORREGIAO DE SAUDE NORTE,17002,BICO DO PAPAGAIO,1.961
1703842,Campos Lindos,CAMPOS LINDOS,17,Tocantins,TOCANTINS,TO,17007,Jalapão,JALAPAO,1702,Oriental do Tocantins,ORIENTAL DO TOCANTINS,1,Norte,NORTE,N,170005,Araguaína,ARAGUAINA,1702,Araguaína,ARAGUAINA,-8.203794207310896,-46.80457827685586,170384,1701,MACRORREGIAO DE SAUDE NORTE,17001,MEDIO NORTE ARAGUAIA,8.653
1703867,Cariri do Tocantins,CARIRI DO TOCANTINS,17,Tocantins,TOCANTINS,TO,17005,Gurupi,GURUPI,1701,Ocidental do Tocantins,OCIDENTAL DO TOCANTINS,1,Norte,NORTE,N,170010,Gurupi,GURUPI,1703,Gurupi,GURUPI,-11.933039305220724,-49.20278168516526,170386,1702,MACRORREGIAO CENTRO-SUL,17005,ILHA DO BANANAL,4.007
1703883,Carmolândia,CARMOLANDIA,17,Tocantins,TOCANTINS,TO,17002,Araguaína,ARAGUAINA,1701,Ocidental do Tocantins,OCIDENTAL DO TOCANTINS,1,Norte,NORTE,N,170005,Araguaína,ARAGUAINA,1702,Araguaína,ARAGUAINA,-7.045122843017795,-48.37454437239706,170388,1701,MACRORREGIAO DE SAUDE NORTE,17001,MEDIO NORTE ARAGUAIA,2.201
1703891,Carrasco Bonito,CARRASCO BONITO,17,Tocantins,TOCANTINS,TO,17001,Bico do Papagaio,BICO DO PAPAGAIO,1701,Ocidental do Tocantins,OCIDENTAL DO TOCANTINS,1,Norte,NORTE,N,170009,Araguatins,ARAGUATINS,1702,Araguaína,ARAGUAINA,-5.337171002604045,-48.009894177177024,170389,1701,MACRORREGIAO DE SAUDE NORTE,17002,BICO DO PAPAGAIO,3.318
1703909,Caseara,CASEARA,17,Tocantins,TOCANTINS,TO,17003,Miracema do Tocantins,MIRACEMA DO TOCANTINS,1701,Ocidental do Tocantins,OCIDENTAL DO TOCANTINS,1,Norte,NORTE,N,170003,Paraíso do Tocantins,PARAISO DO TOCANTINS,1701,Palmas,PALMAS,-9.401665623074138,-49.84856382642822,170390,1702,MACRORREGIAO CENTRO-SUL,17007,CANTAO,4.847
1704105,Centenário,CENTENARIO,17,Tocantins,TOCANTINS,TO,17007,Jalapão,JALAPAO,1702,Oriental do Tocantins,ORIENTAL DO TOCANTINS,1,Norte,NORTE,N,170006,Guaraí,GUARAI,1702,Araguaína,ARAGUAINA,-9.073784927460057,-47.444782542648866,170410,1701,MACRORREGIAO DE SAUDE NORTE,17004,CERRADO TOCANTINS ARAGUAIA,2.131
1704600,Chapada de Areia,CHAPADA DE AREIA,17,Tocantins,TOCANTINS,TO,17004,Rio Formoso,RIO FORMOSO,1701,Ocidental do Tocantins,OCIDENTAL DO TOCANTINS,1,Norte,NORTE,N,170003,Paraíso do Tocantins,PARAISO DO TOCANTINS,1701,Palmas,PALMAS,-10.16572056370936,-49.19566030620604,170460,1702,MACRORREGIAO CENTRO-SUL,17007,CANTAO,1.501
1705102,Chapada da Natividade,CHAPADA DA NATIVIDADE,17,Tocantins,TOCANTINS,TO,17008,Dianópolis,DIANOPOLIS,1702,Oriental do Tocantins,ORIENTAL DO TOCANTINS,1,Norte,NORTE,N,170002,Porto Nacional,PORTO NACIONAL,1701,Palmas,PALMAS,-11.541070574351881,-47.84643825425153,170510,1702,MACRORREGIAO CENTRO-SUL,17008,AMOR PERFEITO,3.117
1705508,Colinas do Tocantins,COLINAS DO TOCANTINS,17,Tocantins,TOCANTINS,TO,17002,Araguaína,ARAGUAINA,1701,Ocidental do Tocantins,OCIDENTAL DO TOCANTINS,1,Norte,NORTE,N,170007,Colinas do Tocantins,COLINAS DO TOCANTINS,1702,Araguaína,ARAGUAINA,-8.076445105264902,-48.53011542750723,170550,1701,MACRORREGIAO DE SAUDE NORTE,17004,CERRADO TOCANTINS ARAGUAIA,34.233
1705557,Combinado,COMBINADO,17,Tocantins,TOCANTINS,TO,17008,Dianópolis,DIANOPOLIS,1702,Oriental do Tocantins,ORIENTAL DO TOCANTINS,1,Norte,NORTE,N,170011,Dianópolis,DIANOPOLIS,1703,Gurupi,GURUPI,-12.8462647911934,-46.503786415889294,170555,1702,MACRORREGIAO CENTRO-SUL,17003,SUDESTE,4.756
1705607,Conceição do Tocantins,CONCEICAO DO TOCANTINS,17,Tocantins,TOCANTINS,TO,17008,Dianópolis,DIANOPOLIS,1702,Oriental do Tocantins,ORIENTAL DO TOCANTINS,1,Norte,NORTE,N,170011,Dianópolis,DIANOPOLIS,1703,Gurupi,GURUPI,-12.171029410483289,-47.30366068927435,170560,1702,MACRORREGIAO CENTRO-SUL,17003,SUDESTE,3.887
